fiscal_year,primary_address_line_1,State_code,X_COORDINATE,Y_COORDINATE,Long,Lat,Community_district,Council-district,Census_tract,Borough_block_lot,NTA,NTA_Name,Geographical_District_code,Administrative_District_Code,Administrative_District_Name,Community_district 1,Police_precinct
2020,309 47 STREET,NY,981081,175710,-74.01142,40.648959,307,38,8000,3007550022,BK32,Sunset Park West,15,15,COMMUNITY SCHOOL DISTRICT 15,307,72
2020,655 PARKSIDE AVENUE,NY,997686,178433,-73.951575,40.656423,309,40,80200,3050500051,BK60,Prospect Lefferts Gardens-Wingate,17,17,COMMUNITY SCHOOL DISTRICT 17,309,71
2020,50 JEFFERSON AVENUE,NY,996670,187864,-73.955219,40.682311,303,36,22700,3019980001,BK69,Clinton Hill,13,13,COMMUNITY SCHOOL DISTRICT 13,303,79
2020,923 JEROME STREET,NY,1017745,179209,-73.879276,40.6585,305,42,107800,3044010001,BK82,East New York,19,75,CITYWIDE SPECIAL EDUCATION,305,75
2020,820 HANCOCK STREET,NY,1005891,188938,-73.92197,40.685241,303,41,37700,3014900001,BK35,Stuyvesant Heights,16,16,COMMUNITY SCHOOL DISTRICT 16,303,81
2020,43 SNYDER AVENUE,NY,996382,175718,-73.956279,40.648973,314,40,79400,3051030079,BK95,Erasmus,17,17,COMMUNITY SCHOOL DISTRICT 17,314,70
2020,858 JAMAICA AVENUE,NY,1019475,190401,-73.872983,40.689213,305,37,118201,3041060039,BK83,Cypress Hills-City Line,19,19,COMMUNITY SCHOOL DISTRICT 19,305,75
2020,37 HICKS STREET,NY,986235,194564,-73.992841,40.700709,302,33,100,3002110001,BK09,Brooklyn Heights-Cobble Hill,13,13,COMMUNITY SCHOOL DISTRICT 13,302,84
2020,80 UNDERHILL AVENUE,NY,993588,186494,-73.966333,40.678554,308,35,20500,3011450026,BK64,Prospect Heights,13,13,COMMUNITY SCHOOL DISTRICT 13,308,77
2020,511 7 AVENUE,NY,988149,180065,-73.985946,40.660912,307,38,14900,3008690001,BK37,Park Slope-Gowanus,15,15,COMMUNITY SCHOOL DISTRICT 15,307,72
2020,419 WAVERLY AVENUE,NY,993710,189169,-73.96589,40.685896,302,35,19900,3019620010,BK69,Clinton Hill,13,13,COMMUNITY SCHOOL DISTRICT 13,302,88
2020,430 HOWARD AVENUE,NY,1006415,184524,-73.920095,40.673124,316,41,36300,3014570032,BK79,Ocean Hill,23,17,COMMUNITY SCHOOL DISTRICT 17,316,73
2020,557 PENNSYLVANIA AVENUE,NY,1013844,181232,-73.893328,40.664067,305,42,112600,3038230001,BK85,East New York (Pennsylvania Ave),19,19,COMMUNITY SCHOOL DISTRICT 19,305,75
2020,2424 BATCHELDER STREET,NY,1001439,155413,-73.938107,40.593232,315,48,59600,3074240001,BK17,Sheepshead Bay-Gerritsen Beach-Manhattan Beach,22,22,COMMUNITY SCHOOL DISTRICT 22,315,61
2020,330 59 STREET,NY,978978,173219,-74.019,40.6422,307,38,7400,3008620012,BK32,Sunset Park West,20,20,COMMUNITY SCHOOL DISTRICT 20,307,72
2020,71 SULLIVAN STREET,NY,980959,185957,-74.011864,40.677085,306,38,5300,3005660001,BK33,Carroll Gardens-Columbia Street-Red Hook,15,15,COMMUNITY SCHOOL DISTRICT 15,306,76
2020,157 WILSON STREET,NY,994772,196519,-73.962049,40.706069,301,33,53500,3021770001,BK72,Williamsburg,14,14,COMMUNITY SCHOOL DISTRICT 14,301,90
2020,208 NORTH  5 STREET,NY,996087,199871,-73.9573,40.715268,301,34,51900,3023450001,BK73,North Side-South Side,14,14,COMMUNITY SCHOOL DISTRICT 14,301,94
2020,101 MAUJER STREET,NY,999028,198274,-73.946695,40.71088,301,34,50300,3027870001,BK90,East Williamsburg,14,14,COMMUNITY SCHOOL DISTRICT 14,301,90
2020,325 SOUTH  3 STREET,NY,996815,197991,-73.954678,40.710107,301,34,52700,3024230001,BK73,North Side-South Side,14,14,COMMUNITY SCHOOL DISTRICT 14,301,90
2020,225 ADELPHI STREET,NY,992321,190934,-73.970896,40.690742,302,35,18300,3020910003,BK68,Fort Greene,13,13,COMMUNITY SCHOOL DISTRICT 13,302,88
2020,180 CHAUNCEY STREET,NY,1004588,187155,-73.926673,40.68035,303,36,38100,3016920017,BK61,Crown Heights North,16,16,COMMUNITY SCHOOL DISTRICT 16,303,81
2020,443 ST MARKS AVENUE,NY,995319,185965,-73.960093,40.6771,308,35,30500,3011480050,BK61,Crown Heights North,17,17,COMMUNITY SCHOOL DISTRICT 17,308,77
2020,545 WILLOUGHBY AVENUE,NY,998876,192295,-73.947256,40.69447,303,36,25901,3017590013,BK75,Bedford,14,14,COMMUNITY SCHOOL DISTRICT 14,303,79
2020,427 38 STREET,NY,982992,177121,-74.004533,40.652832,307,38,8400,3007010001,BK32,Sunset Park West,15,15,COMMUNITY SCHOOL DISTRICT 15,307,72
2020,787 LAFAYETTE AVENUE,NY,1000681,191204,-73.940749,40.691472,303,36,28100,3017870014,BK35,Stuyvesant Heights,16,16,COMMUNITY SCHOOL DISTRICT 16,303,79
2020,1014 LAFAYETTE AVENUE,NY,1003152,191221,-73.9317,40.6921,303,36,29100,3016160001,BK35,Stuyvesant Heights,16,16,COMMUNITY SCHOOL DISTRICT 16,303,81
2020,1014 LAFAYETTE AVENUE,NY,1003152,191221,-73.9317,40.6921,303,36,29100,3016160001,BK35,Stuyvesant Heights,16,16,COMMUNITY SCHOOL DISTRICT 16,303,81
2020,27 HUNTINGTON STREET,NY,982821,186259,-74.005151,40.677914,306,38,5900,3005250001,BK33,Carroll Gardens-Columbia Street-Red Hook,15,15,COMMUNITY SCHOOL DISTRICT 15,306,76
2020,265 RALPH AVENUE,NY,1006134,187116,-73.921099,40.680239,303,41,37900,3015180001,BK35,Stuyvesant Heights,16,16,COMMUNITY SCHOOL DISTRICT 16,303,81
2020,425 HENRY STREET,NY,984958,189512,-73.997447,40.686843,306,39,4500,3003110001,BK33,Carroll Gardens-Columbia Street-Red Hook,15,15,COMMUNITY SCHOOL DISTRICT 15,306,76
2020,7002 4TH AVENUE,NY,977441,170105,-74.02395,40.633598,310,43,6800,3058910048,BK31,Bay Ridge,20,20,COMMUNITY SCHOOL DISTRICT 20,310,68
2020,75 MESEROLE AVENUE,NY,996961,204135,-73.954139,40.72697,301,33,56100,3025950001,BK76,Greenpoint,14,14,COMMUNITY SCHOOL DISTRICT 14,301,94
2020,317 HOYT STREET,NY,986707,187077,-73.991141,40.680159,306,39,7500,3004370001,BK33,Carroll Gardens-Columbia Street-Red Hook,15,15,COMMUNITY SCHOOL DISTRICT 15,306,76
2020,70 TOMPKINS AVENUE,NY,999050,193242,-73.9466,40.6971,303,36,25700,3017430018,BK75,Bedford,14,14,COMMUNITY SCHOOL DISTRICT 14,303,79
2020,131 NORMAN AVENUE,NY,998176,203920,-73.949756,40.726378,301,33,57300,3026220028,BK76,Greenpoint,14,14,COMMUNITY SCHOOL DISTRICT 14,301,94
2020,272 MACDONOUGH STREET,NY,1002031,187582,-73.935891,40.681528,303,36,27300,3016740011,BK35,Stuyvesant Heights,16,16,COMMUNITY SCHOOL DISTRICT 16,303,81
2020,2045 LINDEN BOULEVARD,NY,1015547,179922,-73.887195,40.660465,305,42,110400,3043270024,BK82,East New York,19,75,CITYWIDE SPECIAL EDUCATION,305,75
2020,215 HEYWARD STREET,NY,997197,195765,-73.953304,40.703996,301,33,52900,3022270001,BK72,Williamsburg,14,84,OFFICE OF CHARTER SCHOOLS,301,90
2020,450 PACIFIC STREET,NY,989013,188821,-73.982826,40.684945,302,33,3900,3001910001,BK38,DUMBO-Vinegar Hill-Downtown Brooklyn-Boerum Hill,15,15,COMMUNITY SCHOOL DISTRICT 15,302,84
2020,417 6 AVENUE,NY,988991,182882,-73.982909,40.668644,306,39,15300,3010000001,BK37,Park Slope-Gowanus,15,15,COMMUNITY SCHOOL DISTRICT 15,306,78
2020,265 RALPH AVENUE,NY,1006134,187116,-73.921099,40.680239,303,41,37900,3015180001,BK35,Stuyvesant Heights,16,16,COMMUNITY SCHOOL DISTRICT 16,303,81
2020,411 THATFORD AVENUE,NY,1010073,179912,-73.906925,40.660455,316,42,91800,3036040001,BK81,Brownsville,23,23,COMMUNITY SCHOOL DISTRICT 23,316,73
2020,411 THATFORD AVENUE,NY,1010073,179912,-73.906925,40.660455,316,42,91800,3036040001,BK81,Brownsville,23,23,COMMUNITY SCHOOL DISTRICT 23,316,73
2020,432 MONROE STREET,NY,1000652,189288,-73.940859,40.686213,303,36,27700,3018210001,BK35,Stuyvesant Heights,13,13,COMMUNITY SCHOOL DISTRICT 13,303,79
2020,84 SCHAEFER STREET,NY,1009091,189372,-73.91043,40.686424,304,37,40100,3034270011,BK78,Bushwick South,32,32,COMMUNITY SCHOOL DISTRICT 32,304,83
2020,100 CLERMONT AVENUE,NY,992113,192314,-73.971644,40.69453,302,35,18700,3020450011,BK68,Fort Greene,13,13,COMMUNITY SCHOOL DISTRICT 13,302,88
2020,6015 18 AVENUE,NY,987813,165699,-73.987165,40.621481,312,44,24400,3055190001,BK88,Borough Park,20,20,COMMUNITY SCHOOL DISTRICT 20,312,66
2020,223 GRAHAM AVENUE,NY,999873,197948,-73.9436,40.71,301,34,50500,3030250001,BK90,East Williamsburg,14,14,COMMUNITY SCHOOL DISTRICT 14,301,90
2020,183 SOUTH  3 STREET,NY,995301,198649,-73.960137,40.711915,301,34,52300,3024190001,BK73,North Side-South Side,14,14,COMMUNITY SCHOOL DISTRICT 14,301,90
2020,350 5 AVENUE,NY,988397,184235,-73.98505,40.672358,306,39,13500,3009810111,BK37,Park Slope-Gowanus,15,15,COMMUNITY SCHOOL DISTRICT 15,306,78
2020,2675 EAST  29 STREET,NY,1000877,153642,-73.940135,40.588372,315,48,60000,3074740001,BK17,Sheepshead Bay-Gerritsen Beach-Manhattan Beach,22,22,COMMUNITY SCHOOL DISTRICT 22,315,61
2020,544 7TH AVENUE,NY,987373,180026,-73.988743,40.660805,307,38,14700,3008800001,BK32,Sunset Park West,15,75,CITYWIDE SPECIAL EDUCATION,307,72
2020,195 SANDFORD STREET,NY,997421,191619,-73.952504,40.692616,303,33,24100,3017650015,BK75,Bedford,13,13,COMMUNITY SCHOOL DISTRICT 13,303,79
2020,2021 BERGEN STREET,NY,1008307,184882,-73.9133,40.6741,316,41,36501,3014480001,BK79,Ocean Hill,23,23,COMMUNITY SCHOOL DISTRICT 23,316,73
2020,170 GATES AVENUE,NY,995195,188583,-73.960536,40.684286,302,35,23100,3019830010,BK69,Clinton Hill,13,13,COMMUNITY SCHOOL DISTRICT 13,302,88
2020,125 STUYVESANT AVENUE,NY,1003037,191204,-73.932254,40.691467,303,36,29100,3016160001,BK35,Stuyvesant Heights,16,16,COMMUNITY SCHOOL DISTRICT 16,303,81
2020,330 SMITH STREET,NY,985502,187157,-73.995486,40.680379,306,39,7700,3004490015,BK33,Carroll Gardens-Columbia Street-Red Hook,15,15,COMMUNITY SCHOOL DISTRICT 15,306,76
2020,211 THROOP AVENUE,NY,999978,193443,-73.943279,40.697619,303,36,28502,3017490001,BK35,Stuyvesant Heights,14,14,COMMUNITY SCHOOL DISTRICT 14,303,79
2020,400 EMPIRE BOULEVARD,NY,998344,181050,-73.949198,40.663605,309,40,32900,3013160015,BK60,Prospect Lefferts Gardens-Wingate,17,17,COMMUNITY SCHOOL DISTRICT 17,309,71
2020,700 CORTELYOU ROAD,NY,992256,171750,-73.971153,40.638087,312,40,49000,3053910001,BK41,Kensington-Ocean Parkway,20,20,COMMUNITY SCHOOL DISTRICT 20,312,66
2020,696 JAMAICA AVENUE,NY,1017987,189423,-73.878353,40.686534,305,37,117601,3041020019,BK83,Cypress Hills-City Line,19,19,COMMUNITY SCHOOL DISTRICT 19,305,75
2020,845 EAST  96 STREET,NY,1010039,175647,-73.907064,40.648749,318,42,97000,3081290060,BK50,Canarsie,18,18,COMMUNITY SCHOOL DISTRICT 18,318,69
2020,51 SAINT EDWARDS STREET,NY,990441,192608,-73.977674,40.695339,302,35,2901,3020390002,BK68,Fort Greene,13,13,COMMUNITY SCHOOL DISTRICT 13,302,88
2020,956 EAST  82 STREET,NY,1008892,170778,-73.911215,40.635388,318,46,95600,3080180001,BK50,Canarsie,18,18,COMMUNITY SCHOOL DISTRICT 18,318,69
2020,6302 9TH AVENUE,NY,981543,169674,-74.009752,40.632392,310,38,12000,3057350032,BK34,Sunset Park East,20,20,COMMUNITY SCHOOL DISTRICT 20,310,68
2020,6302 9TH AVENUE,NY,981543,169674,-74.009752,40.632392,310,38,12000,3057350032,BK34,Sunset Park East,20,20,COMMUNITY SCHOOL DISTRICT 20,310,68
2020,215 HEYWARD STREET,NY,997197,195765,-73.953304,40.703996,301,33,52900,3022270001,BK72,Williamsburg,14,14,COMMUNITY SCHOOL DISTRICT 14,301,90
2020,605 SHEPHERD AVENUE,NY,1017780,183165,-73.879131,40.669358,305,42,116400,3040690001,BK82,East New York,19,19,COMMUNITY SCHOOL DISTRICT 19,305,75
2020,251 MCDOUGAL STREET,NY,1009013,187279,-73.910719,40.680679,316,37,36900,3015280001,BK79,Ocean Hill,23,23,COMMUNITY SCHOOL DISTRICT 23,316,73
2020,95 GROVE STREET,NY,1006064,191860,-73.921336,40.693261,304,34,41900,3033140001,BK78,Bushwick South,32,32,COMMUNITY SCHOOL DISTRICT 32,304,83
2020,62 PARK PLACE,NY,990727,186586,-73.976648,40.678809,306,39,12902,3009410050,BK37,Park Slope-Gowanus,13,75,CITYWIDE SPECIAL EDUCATION,306,78
2020,1420 EAST  68 STREET,NY,1008426,165367,-73.912914,40.620537,318,46,69602,3083880002,BK45,Georgetown-Marine Park-Bergen Beach-Mill Basin,22,22,COMMUNITY SCHOOL DISTRICT 22,318,63
2020,990 DEKALB AVENUE,NY,1002241,191713,-73.935123,40.692866,303,36,28900,3016020019,BK35,Stuyvesant Heights,16,16,COMMUNITY SCHOOL DISTRICT 16,303,81
2020,250 BERRY STREET,NY,994283,199805,-73.963808,40.715089,301,34,55100,3023910001,BK73,North Side-South Side,14,14,COMMUNITY SCHOOL DISTRICT 14,301,90
2020,220 IRVING AVENUE,NY,1007041,194533,-73.917804,40.700595,304,37,43100,3032890027,BK77,Bushwick North,32,32,COMMUNITY SCHOOL DISTRICT 32,304,83
2020,544 7TH AVENUE,NY,987373,180026,-73.988743,40.660805,307,38,14700,3008800001,BK32,Sunset Park West,15,15,COMMUNITY SCHOOL DISTRICT 15,307,72
2020,265 WARWICK STREET,NY,1015673,186204,-73.886712,40.677707,305,37,117000,3039520047,BK82,East New York,19,19,COMMUNITY SCHOOL DISTRICT 19,305,75
2020,2840 WEST  12 STREET,NY,989698,149928,-73.980387,40.578192,313,47,35000,3072660040,BK23,West Brighton,21,21,COMMUNITY SCHOOL DISTRICT 21,313,60
2020,532 ALBANY AVENUE,NY,1000700,180396,-73.940707,40.661806,309,41,80600,3047940026,BK60,Prospect Lefferts Gardens-Wingate,17,17,COMMUNITY SCHOOL DISTRICT 17,309,71
2020,601 PARKSIDE AVENUE,NY,997066,178379,-73.95381,40.656276,309,40,80200,3050490055,BK60,Prospect Lefferts Gardens-Wingate,17,17,COMMUNITY SCHOOL DISTRICT 17,309,71
2020,31 NEW YORK AVENUE,NY,999122,186688,-73.946381,40.679079,303,36,24700,3018680007,BK61,Crown Heights North,13,13,COMMUNITY SCHOOL DISTRICT 13,303,79
2020,5010 6 AVENUE,NY,981809,173805,-74.008795,40.64373,307,38,9800,3007920026,BK34,Sunset Park East,15,15,COMMUNITY SCHOOL DISTRICT 15,307,72
2020,345 VAN SICKLEN STREET,NY,991286,156415,-73.974664,40.595996,315,47,39800,3071230066,BK26,Gravesend,21,21,COMMUNITY SCHOOL DISTRICT 21,315,61
2020,99 AVENUE P,NY,988419,160837,-73.984985,40.608135,311,44,43000,3065950033,BK29,Bensonhurst East,21,21,COMMUNITY SCHOOL DISTRICT 21,311,62
2020,1855 STILLWELL AVENUE,NY,988257,158307,-73.98557,40.601191,311,47,40400,3066670024,BK29,Bensonhurst East,21,21,COMMUNITY SCHOOL DISTRICT 21,311,62
2020,1401 EMMONS AVENUE,NY,997014,152008,-73.954047,40.583893,315,48,60800,3087670026,BK17,Sheepshead Bay-Gerritsen Beach-Manhattan Beach,21,21,COMMUNITY SCHOOL DISTRICT 21,315,61
2020,1120 EAST  10 STREET,NY,993680,165698,-73.966031,40.621474,312,44,45400,3065350011,BK46,Ocean Parkway South,21,21,COMMUNITY SCHOOL DISTRICT 21,312,66
2020,2951 WEST  3 STREET,NY,992353,149710,-73.97083,40.577591,313,48,35602,3072810001,BK23,West Brighton,21,21,COMMUNITY SCHOOL DISTRICT 21,313,60
2020,2360 BENSON AVENUE,NY,986482,156918,-73.991962,40.597379,311,47,30200,3068750032,BK29,Bensonhurst East,21,21,COMMUNITY SCHOOL DISTRICT 21,311,62
2020,211 72 STREET,NY,976268,170377,-74.028758,40.634318,310,43,6800,3058900001,BK31,Bay Ridge,20,20,COMMUNITY SCHOOL DISTRICT 20,310,68
2020,170 GATES AVENUE,NY,995195,188583,-73.960536,40.684286,302,35,23100,3019830010,BK69,Clinton Hill,13,13,COMMUNITY SCHOOL DISTRICT 13,302,88
2020,9115 5 AVENUE,NY,976340,164460,-74.028492,40.618077,310,43,16000,3060880001,BK31,Bay Ridge,20,20,COMMUNITY SCHOOL DISTRICT 20,310,68
2020,1031 59 STREET,NY,983241,170012,-74.003635,40.63332,312,38,21400,3057020001,BK88,Borough Park,20,20,COMMUNITY SCHOOL DISTRICT 20,312,66
2020,1328 PUTNAM AVENUE,NY,1008271,191883,-73.913378,40.693318,304,37,41500,3033760034,BK78,Bushwick South,32,32,COMMUNITY SCHOOL DISTRICT 32,304,83
2020,1301 8 AVENUE,NY,989471,180806,-73.981181,40.662945,306,39,16700,3011010001,BK37,Park Slope-Gowanus,15,15,COMMUNITY SCHOOL DISTRICT 15,306,78
2020,200 LINWOOD STREET,NY,1016327,187512,-73.884348,40.681295,305,37,117202,3039260045,BK83,Cypress Hills-City Line,19,19,COMMUNITY SCHOOL DISTRICT 19,305,75
2020,1001 EAST  45 STREET,NY,1002818,170938,-73.933099,40.635842,317,45,83600,3050220002,BK91,East Flatbush-Farragut,22,22,COMMUNITY SCHOOL DISTRICT 22,317,67
2020,1001 EAST  45 STREET,NY,1002818,170938,-73.933099,40.635842,317,45,83600,3050220002,BK91,East Flatbush-Farragut,22,22,COMMUNITY SCHOOL DISTRICT 22,317,67
2020,124 MONITOR STREET,NY,1000347,202961,-73.941926,40.723743,301,33,59100,3026880042,BK76,Greenpoint,14,14,COMMUNITY SCHOOL DISTRICT 14,301,94
2020,7115 15 AVENUE,NY,984093,164947,-74.000565,40.619417,311,43,19000,3061800001,BK28,Bensonhurst West,20,20,COMMUNITY SCHOOL DISTRICT 20,311,62
2020,300 ADELPHI STREET,NY,992161,190215,-73.971474,40.688769,302,35,18100,3021030004,BK68,Fort Greene,13,13,COMMUNITY SCHOOL DISTRICT 13,302,88
2020,1077 REMSEN AVENUE,NY,1009815,173437,-73.90788,40.642684,318,46,96400,3081600022,BK50,Canarsie,18,18,COMMUNITY SCHOOL DISTRICT 18,318,69
2020,1500 EAST  92 STREET,NY,1012589,170590,-73.897896,40.634861,318,46,100800,3082560001,BK50,Canarsie,18,18,COMMUNITY SCHOOL DISTRICT 18,318,69
2020,515 KNICKERBOCKER AVENUE,NY,1007386,193616,-73.916563,40.698077,304,37,43300,3033170001,BK77,Bushwick North,32,32,COMMUNITY SCHOOL DISTRICT 32,304,83
2020,300 WILLOUGHBY AVENUE,NY,995677,191627,-73.9588,40.6926,303,33,23500,3019260010,BK69,Clinton Hill,13,13,COMMUNITY SCHOOL DISTRICT 13,303,79
2020,211 8TH STREET,NY,987689,183793,-73.987602,40.671145,306,39,13700,3009980001,BK37,Park Slope-Gowanus,15,15,COMMUNITY SCHOOL DISTRICT 15,306,78
2020,3829 AVENUE K,NY,1001257,167365,-73.938733,40.626038,318,45,73400,3077860001,BK58,Flatlands,22,22,COMMUNITY SCHOOL DISTRICT 22,318,63
2020,18 BEAVER STREET,NY,1001472,194610,-73.937888,40.700819,304,34,38900,3031370026,BK78,Bushwick South,14,14,COMMUNITY SCHOOL DISTRICT 14,304,83
2020,5301 20 AVENUE,NY,990226,166133,-73.978472,40.622671,312,44,46400,3054951101,BK88,Borough Park,21,21,COMMUNITY SCHOOL DISTRICT 21,312,66
2020,150 ALBANY AVENUE,NY,1001092,185533,-73.939282,40.675905,308,36,31100,3012160046,BK61,Crown Heights North,17,17,NULL,308,77
2020,100 IRVING AVENUE,NY,1005769,195800,-73.922388,40.704076,304,34,44500,3032100001,BK77,Bushwick North,32,32,COMMUNITY SCHOOL DISTRICT 32,304,83
2020,515 4 AVENUE,NY,986852,182452,-73.99062,40.667464,306,39,14100,3010340001,BK37,Park Slope-Gowanus,15,15,COMMUNITY SCHOOL DISTRICT 15,306,78
2020,211 THROOP AVENUE,NY,999978,193443,-73.943279,40.697619,303,36,28502,3017490001,BK35,Stuyvesant Heights,14,84,OFFICE OF CHARTER SCHOOLS,303,79
2020,424 LEONARD STREET,NY,998683,201530,-73.947932,40.719818,301,33,49900,3027120001,BK76,Greenpoint,14,14,COMMUNITY SCHOOL DISTRICT 14,301,94
2020,7805 7 AVENUE,NY,979134,166503,-74.018429,40.623687,310,43,20600,3059730001,BK30,Dyker Heights,20,20,COMMUNITY SCHOOL DISTRICT 20,310,68
2020,2075 84 STREET,NY,985615,159687,-73.995084,40.60498,311,47,28800,3063290032,BK28,Bensonhurst West,21,21,COMMUNITY SCHOOL DISTRICT 21,311,62
2020,284 BALTIC STREET,NY,986110,188843,-73.993293,40.685006,306,33,6900,3004020001,BK38,DUMBO-Vinegar Hill-Downtown Brooklyn-Boerum Hill,15,84,OFFICE OF CHARTER SCHOOLS,306,76
2020,70 OCEAN PARKWAY,NY,990895,175698,-73.976053,40.648924,307,39,50000,3053190001,BK40,Windsor Terrace,15,15,COMMUNITY SCHOOL DISTRICT 15,307,72
2020,4305 FT HAMILTON PARKWAY,NY,986124,172711,-73.993247,40.640728,312,39,22400,3056030001,BK88,Borough Park,15,15,COMMUNITY SCHOOL DISTRICT 15,312,66
2020,320 MANHATTAN AVENUE,NY,999313,199692,-73.945663,40.714772,301,34,49700,3027590001,BK90,East Williamsburg,14,14,COMMUNITY SCHOOL DISTRICT 14,301,94
2020,610 BALTIC STREET,NY,989671,186989,-73.980455,40.679916,306,39,12901,3009400111,BK37,Park Slope-Gowanus,13,13,COMMUNITY SCHOOL DISTRICT 13,306,78
2020,4001 18 AVENUE,NY,991694,169585,-73.97318,40.632145,314,44,48000,3054160048,BK42,Flatbush,22,22,COMMUNITY SCHOOL DISTRICT 22,314,70
2020,684 LINDEN BOULEVARD,NY,1002855,177223,-73.932949,40.653093,317,41,87000,3046730001,BK91,East Flatbush-Farragut,18,18,COMMUNITY SCHOOL DISTRICT 18,317,67
2020,4004 4 AVENUE,NY,982142,176864,-74.007596,40.652127,307,38,8200,3007130020,BK32,Sunset Park West,15,15,COMMUNITY SCHOOL DISTRICT 15,307,72
2020,121 SARATOGA AVENUE,NY,1007370,187849,-73.916641,40.682248,316,41,37300,3015100001,BK79,Ocean Hill,23,23,COMMUNITY SCHOOL DISTRICT 23,316,73
2020,760 PROSPECT PLACE,NY,997687,184816,-73.951559,40.673943,308,36,31701,3012330026,BK61,Crown Heights North,17,17,COMMUNITY SCHOOL DISTRICT 17,308,77
2020,760 PROSPECT PLACE,NY,997687,184816,-73.951559,40.673943,308,36,31701,3012330026,BK61,Crown Heights North,17,17,COMMUNITY SCHOOL DISTRICT 17,308,77
2020,330 RUGBY ROAD,NY,993724,172936,-73.965862,40.64134,314,40,152200,3051440064,BK42,Flatbush,22,22,COMMUNITY SCHOOL DISTRICT 22,314,70
2020,141 MACON STREET,NY,999338,187723,-73.9456,40.68192,303,36,26900,3018450001,BK75,Bedford,13,75,CITYWIDE SPECIAL EDUCATION,303,79
2020,655 PARKSIDE AVENUE,NY,997686,178433,-73.951575,40.656423,309,40,80200,3050500051,BK60,Prospect Lefferts Gardens-Wingate,17,75,CITYWIDE SPECIAL EDUCATION,309,71
2020,610 HENRY STREET,NY,983868,187044,-74.0014,40.6801,306,39,6300,3003690001,BK33,Carroll Gardens-Columbia Street-Red Hook,15,15,COMMUNITY SCHOOL DISTRICT 15,306,76
2020,800 GATES AVENUE,NY,1003098,190066,-73.932,40.6883,303,36,29300,3016360001,BK35,Stuyvesant Heights,16,16,COMMUNITY SCHOOL DISTRICT 16,303,81
2020,100 NOLL STREET,NY,1002997,194716,-73.932388,40.701107,304,34,42500,3031530011,BK78,Bushwick South,32,32,COMMUNITY SCHOOL DISTRICT 32,304,83
2020,610 HENRY STREET,NY,983689,186823,-74.002022,40.679462,306,39,6300,3003690001,BK33,Carroll Gardens-Columbia Street-Red Hook,15,15,COMMUNITY SCHOOL DISTRICT 15,306,76
2020,325 BUSHWICK AVENUE,NY,1001221,196135,-73.93879,40.705005,301,34,48500,3030910001,BK78,Bushwick South,14,14,COMMUNITY SCHOOL DISTRICT 14,301,90
2020,700 SUTTER AVENUE,NY,1013999,183161,-73.89276,40.669361,305,42,115800,3037740016,BK85,East New York (Pennsylvania Ave),19,19,COMMUNITY SCHOOL DISTRICT 19,305,75
2020,364 SACKMAN STREET,NY,1010565,182941,-73.90514,40.668768,316,41,90800,3037440009,BK81,Brownsville,23,23,COMMUNITY SCHOOL DISTRICT 23,316,73
2020,763 KNICKERBOCKER AVENUE,NY,1009695,191926,-73.908242,40.693432,304,37,43700,3034060001,BK77,Bushwick North,32,32,COMMUNITY SCHOOL DISTRICT 32,304,83
2020,725 EAST  23 STREET,NY,996943,169760,-73.954269,40.632619,314,45,77200,3075510026,BK42,Flatbush,22,22,COMMUNITY SCHOOL DISTRICT 22,314,70
2020,725 EAST  23 STREET,NY,996943,169760,-73.954269,40.632619,314,45,77200,3075510026,BK42,Flatbush,22,22,COMMUNITY SCHOOL DISTRICT 22,314,70
2020,1970 HOMECREST AVENUE,NY,995350,158305,-73.960027,40.601179,315,48,55600,3072910030,BK25,Homecrest,21,21,COMMUNITY SCHOOL DISTRICT 21,315,61
2020,1625 11 AVENUE,NY,990918,178641,-73.975967,40.657002,307,39,17100,3052570001,BK40,Windsor Terrace,15,15,COMMUNITY SCHOOL DISTRICT 15,307,72
2020,1355 HERKIMER STREET,NY,1009579,186170,-73.908682,40.677634,316,37,36900,3015520043,BK79,Ocean Hill,23,23,COMMUNITY SCHOOL DISTRICT 23,316,73
2020,104 SUTTER AVENUE,NY,1007032,181766,-73.91788,40.665553,316,41,90000,3035350016,BK81,Brownsville,23,23,COMMUNITY SCHOOL DISTRICT 23,316,73
2020,850 KENT AVENUE,NY,995342,192631,-73.959999,40.695397,303,33,123700,3018970013,BK75,Bedford,14,14,COMMUNITY SCHOOL DISTRICT 14,303,79
2020,400 ASHFORD STREET,NY,1016091,184340,-73.885214,40.67259,305,37,115000,3040150001,BK82,East New York,19,19,COMMUNITY SCHOOL DISTRICT 19,305,75
2020,2781 PITKIN AVENUE,NY,1020391,185629,-73.869705,40.676111,305,42,120000,3042160001,BK82,East New York,19,19,COMMUNITY SCHOOL DISTRICT 19,305,75
2020,5105 Fort Hamilton Parkway,NY,984515,171328,-73.999045,40.636932,312,44,22000,3056530021,BK88,Borough Park,20,20,COMMUNITY SCHOOL DISTRICT 20,312,66
2020,330 CROWN STREET,NY,998331,181834,-73.949243,40.665757,309,35,31900,3012970026,BK63,Crown Heights South,17,17,COMMUNITY SCHOOL DISTRICT 17,309,71
2020,1390 WILLOUGHBY AVENUE,NY,1006529,196799,-73.919643,40.706816,304,34,44500,3032120001,BK77,Bushwick North,32,32,COMMUNITY SCHOOL DISTRICT 32,304,83
2020,109 BAY 14TH STREET,NY,982176,160328,-74.007469,40.606739,311,43,18000,3063990040,BK27,Bath Beach,20,20,COMMUNITY SCHOOL DISTRICT 20,311,62
2020,4211 14 AVENUE,NY,988208,171390,-73.985739,40.637101,312,44,23200,3056000001,BK88,Borough Park,20,20,COMMUNITY SCHOOL DISTRICT 20,312,66
2020,76 LOTT AVENUE,NY,1008961,178674,-73.910938,40.657061,316,42,89600,3036220023,BK81,Brownsville,23,23,COMMUNITY SCHOOL DISTRICT 23,316,73
2020,800 VAN SICLEN AVE,NY,1015961,179729,-73.885704,40.659934,305,42,110400,3043490050,BK82,East New York,19,19,COMMUNITY SCHOOL DISTRICT 19,305,75
2020,1025 EASTERN PARKWAY,NY,1002471,183221,-73.934316,40.669557,308,35,35300,3013890035,BK61,Crown Heights North,17,17,COMMUNITY SCHOOL DISTRICT 17,308,77
2020,400 IRVING AVENUE,NY,1008721,193027,-73.911751,40.696457,304,37,43500,3033650098,BK77,Bushwick North,32,32,NULL,304,83
2020,4305 7 AVENUE,NY,983778,174568,-74.0017,40.645825,307,38,9200,3007320001,BK34,Sunset Park East,15,15,COMMUNITY SCHOOL DISTRICT 15,307,72
2020,619 72ND STREET,NY,979054,168939,-74.018719,40.630373,310,43,13400,3058990001,BK31,Bay Ridge,20,20,COMMUNITY SCHOOL DISTRICT 20,310,68
2020,619 72ND STREET,NY,979054,168939,-74.018719,40.630373,310,43,13400,3058990001,BK31,Bay Ridge,20,20,COMMUNITY SCHOOL DISTRICT 20,310,68
2020,528 RIDGEWOOD AVENUE,NY,1020461,189178,-73.869434,40.685852,305,37,118400,3041340020,BK83,Cypress Hills-City Line,19,19,COMMUNITY SCHOOL DISTRICT 19,305,75
2020,825 4 AVENUE,NY,984197,178888,-74.000191,40.657682,307,38,10100,3006690001,BK32,Sunset Park West,15,15,COMMUNITY SCHOOL DISTRICT 15,307,72
2020,574 DUMONT AVENUE,NY,1012657,181733,-73.897604,40.665446,305,42,113000,3038020015,BK85,East New York (Pennsylvania Ave),19,19,COMMUNITY SCHOOL DISTRICT 19,305,75
2020,1225 69 STREET,NY,982805,166921,-74.005205,40.624835,310,43,19600,3057740001,BK30,Dyker Heights,20,20,COMMUNITY SCHOOL DISTRICT 20,310,68
2020,346 AVENUE P,NY,991351,160850,-73.974425,40.608169,311,44,42400,3066310001,BK29,Bensonhurst East,21,21,COMMUNITY SCHOOL DISTRICT 21,311,62
2020,2163 DEAN STREET,NY,1007734,185347,-73.915337,40.67538,316,41,30300,3014400056,BK79,Ocean Hill,23,23,COMMUNITY SCHOOL DISTRICT 23,316,73
2020,202 AVENUE C,NY,990561,172493,-73.97726,40.640127,312,39,48800,3053710001,BK41,Kensington-Ocean Parkway,20,20,COMMUNITY SCHOOL DISTRICT 20,312,66
2020,5601 16 AVENUE,NY,987234,167511,-73.98925,40.626454,312,44,47000,3054920001,BK88,Borough Park,20,20,COMMUNITY SCHOOL DISTRICT 20,312,66
2020,1023 NEW YORK AVENUE,NY,999267,175444,-73.945883,40.648217,317,45,85600,3049040010,BK91,East Flatbush-Farragut,17,17,COMMUNITY SCHOOL DISTRICT 17,317,67
2020,183 SOUTH  3 STREET,NY,995301,198649,-73.960137,40.711915,301,34,52300,3024190001,BK73,North Side-South Side,14,84,OFFICE OF CHARTER SCHOOLS,301,90
2020,76 RIVERDALE AVENUE,NY,1008129,179818,-73.9139,40.6602,316,42,89600,3035970011,BK81,Brownsville,23,23,COMMUNITY SCHOOL DISTRICT 23,316,73
2020,273 NEWPORT STREET,NY,1010606,179887,-73.905004,40.660385,316,42,91800,3036060001,BK81,Brownsville,23,23,COMMUNITY SCHOOL DISTRICT 23,316,73
2020,8601 RIDGE BOULEVARD,NY,974970,166472,-74.033429,40.623598,310,43,6000,3060430001,BK31,Bay Ridge,20,20,COMMUNITY SCHOOL DISTRICT 20,310,68
2020,7601 19 AVENUE,NY,985844,161850,-73.994258,40.610917,311,47,27400,3062390001,BK28,Bensonhurst West,20,20,COMMUNITY SCHOOL DISTRICT 20,311,62
2020,1171 65 STREET,NY,983172,168048,-74.003883,40.627929,310,38,21200,3057450029,BK30,Dyker Heights,20,20,COMMUNITY SCHOOL DISTRICT 20,310,68
2020,3314 NEPTUNE AVENUE,NY,984114,149396,-74.000489,40.576733,313,47,32800,3070060001,BK21,Seagate-Coney Island,21,21,COMMUNITY SCHOOL DISTRICT 21,313,60
2020,1100 EAST NEW YORK AVENUE,NY,1004936,181646,-73.925435,40.665228,317,41,89200,3045990001,BK81,Brownsville,17,17,COMMUNITY SCHOOL DISTRICT 17,317,67
2020,590 SHEFFIELD AVENUE,NY,1013415,180567,-73.894877,40.662243,305,42,112800,3038380018,BK85,East New York (Pennsylvania Ave),19,19,COMMUNITY SCHOOL DISTRICT 19,305,75
2020,51 CHRISTOPHER AVENUE,NY,1010320,184197,-73.906018,40.672216,316,37,90800,3036930001,BK81,Brownsville,23,23,COMMUNITY SCHOOL DISTRICT 23,316,73
2020,1600 PARK PLACE,NY,1005297,184015,-73.924127,40.67173,308,41,35900,3013750012,BK61,Crown Heights North,17,17,COMMUNITY SCHOOL DISTRICT 17,308,77
2020,4715 18 AVENUE,NY,989929,168366,-73.97954,40.6288,312,44,47600,3054450001,BK88,Borough Park,20,20,COMMUNITY SCHOOL DISTRICT 20,312,66
2020,2515 AVENUE L,NY,998041,165921,-73.950321,40.62208,314,45,75400,3076250001,BK43,Midwood,22,22,COMMUNITY SCHOOL DISTRICT 22,314,70
2020,3117 AVENUE W,NY,1002533,157176,-73.934163,40.598069,315,46,57000,3073930001,BK17,Sheepshead Bay-Gerritsen Beach-Manhattan Beach,22,22,COMMUNITY SCHOOL DISTRICT 22,315,61
2020,131 IRWIN STREET,NY,999945,150650,-73.943498,40.580161,315,48,62000,3087520035,BK17,Sheepshead Bay-Gerritsen Beach-Manhattan Beach,22,22,COMMUNITY SCHOOL DISTRICT 22,315,61
2020,207 BUSHWICK AVENUE,NY,1001055,197519,-73.939385,40.708804,301,34,48500,3030460001,BK78,Bushwick South,14,14,COMMUNITY SCHOOL DISTRICT 14,301,90
2020,1599 EAST  22 STREET,NY,997744,162372,-73.951398,40.612339,314,48,54600,3067690018,BK43,Midwood,22,22,COMMUNITY SCHOOL DISTRICT 22,314,70
2020,4105 FARRAGUT ROAD,NY,1001712,171578,-73.937083,40.637601,317,45,83600,3049880066,BK91,East Flatbush-Farragut,22,22,COMMUNITY SCHOOL DISTRICT 22,317,67
2020,1100 ELM AVENUE,NY,994515,163817,-73.963026,40.61631,314,48,76800,3067400025,BK43,Midwood,21,21,COMMUNITY SCHOOL DISTRICT 21,314,70
2020,1940 BENSON AVENUE,NY,983718,158896,-74.001915,40.602809,311,43,28200,3064070008,BK27,Bath Beach,20,20,COMMUNITY SCHOOL DISTRICT 20,311,62
2020,8010 12 AVENUE,NY,980433,164811,-74.013749,40.619043,310,43,16600,3062780022,BK30,Dyker Heights,20,20,COMMUNITY SCHOOL DISTRICT 20,310,68
2020,982 HEGEMAN AVENUE,NY,1018627,181876,-73.876084,40.665817,305,42,111600,3044770001,BK82,East New York,19,19,COMMUNITY SCHOOL DISTRICT 19,305,75
2020,5101 AVENUE M,NY,1004867,165936,-73.925732,40.622108,318,46,68000,3078490001,BK58,Flatlands,22,22,COMMUNITY SCHOOL DISTRICT 22,318,63
2020,8101 15 AVENUE,NY,982546,162804,-74.006137,40.613535,311,43,18400,3062940001,BK28,Bensonhurst West,20,20,COMMUNITY SCHOOL DISTRICT 20,311,62
2020,6701 20 AVENUE,NY,987917,163242,-73.986792,40.614737,311,47,25600,3055710001,BK28,Bensonhurst West,20,20,COMMUNITY SCHOOL DISTRICT 20,311,62
2020,2200 GRAVESEND NECK ROAD,NY,998565,156739,-73.948453,40.596876,315,48,59401,3073810201,BK17,Sheepshead Bay-Gerritsen Beach-Manhattan Beach,22,22,COMMUNITY SCHOOL DISTRICT 22,315,61
2020,4011 FILLMORE AVENUE,NY,1003550,162974,-73.930485,40.613981,318,46,65200,3084840001,BK45,Georgetown-Marine Park-Bergen Beach-Mill Basin,22,22,COMMUNITY SCHOOL DISTRICT 22,318,63
2020,4801 AVENUE D,NY,1003427,173437,-73.930898,40.6427,317,45,84000,3047690025,BK91,East Flatbush-Farragut,18,18,COMMUNITY SCHOOL DISTRICT 18,317,67
2020,2609 EAST  7 STREET,NY,995029,153066,-73.961191,40.5868,313,48,37000,3072440001,BK19,Brighton Beach,21,21,COMMUNITY SCHOOL DISTRICT 21,313,60
2020,1001 EAST 100 STREET,NY,1013327,173531,-73.895224,40.642931,318,46,98800,3082270001,BK50,Canarsie,18,18,COMMUNITY SCHOOL DISTRICT 18,318,69
2020,87 BAY  49 STREET,NY,988314,153360,-73.985368,40.587612,313,47,31400,3069170001,BK26,Gravesend,21,21,COMMUNITY SCHOOL DISTRICT 21,313,60
2020,580 HEGEMAN AVENUE,NY,1014778,179695,-73.889968,40.659845,305,42,110400,3043240001,BK82,East New York,19,19,COMMUNITY SCHOOL DISTRICT 19,305,75
2020,2944 PITKIN AVENUE,NY,1022262,185548,-73.862961,40.675881,305,37,120200,3042430001,BK83,Cypress Hills-City Line,19,19,COMMUNITY SCHOOL DISTRICT 19,305,75
2020,415 AVENUE S,NY,992533,158866,-73.970171,40.602722,315,47,41401,3066810169,BK25,Homecrest,21,21,COMMUNITY SCHOOL DISTRICT 21,315,61
2020,350 AVENUE X,NY,992680,154231,-73.969647,40.59,315,47,37401,3071960001,BK26,Gravesend,21,21,COMMUNITY SCHOOL DISTRICT 21,315,61
2020,1100 NEWKIRK AVENUE,NY,993564,170073,-73.966442,40.633482,314,40,52600,3052320001,BK42,Flatbush,22,22,COMMUNITY SCHOOL DISTRICT 22,314,70
2020,370 FOUNTAIN AVENUE,NY,1019054,183408,-73.874537,40.67002,305,42,111800,3042780001,BK82,East New York,19,19,COMMUNITY SCHOOL DISTRICT 19,305,75
2020,1060 CLARKSON AVENUE,NY,1005809,179317,-73.922296,40.658834,317,41,88600,3046480001,BK96,Rugby-Remsen Village,18,18,COMMUNITY SCHOOL DISTRICT 18,317,67
2020,4812 9TH AVENUE,NY,983903,172809,-74.00125,40.640997,312,38,10800,3007780023,BK34,Sunset Park East,20,20,COMMUNITY SCHOOL DISTRICT 20,312,66
2020,791 EMPIRE BOULEVARD,NY,1002074,181183,-73.935753,40.663964,309,35,35500,3014230014,BK63,Crown Heights South,17,17,COMMUNITY SCHOOL DISTRICT 17,309,71
2020,3301 QUENTIN ROAD,NY,1001129,162981,-73.939205,40.614005,318,46,64600,3077060001,BK45,Georgetown-Marine Park-Bergen Beach-Mill Basin,22,22,COMMUNITY SCHOOL DISTRICT 22,318,63
2020,4200 16 AVENUE,NY,989128,170661,-73.982424,40.6351,312,44,23000,3053620021,BK88,Borough Park,20,20,COMMUNITY SCHOOL DISTRICT 20,312,66
2020,757 WORTMAN AVENUE,NY,1021275,181270,-73.866542,40.664143,305,42,122000,3045290133,BK82,East New York,19,19,COMMUNITY SCHOOL DISTRICT 19,305,75
2020,1075 OCEAN VIEW AVENUE,NY,996512,150684,-73.955856,40.58026,313,48,61004,3087120056,BK19,Brighton Beach,21,21,COMMUNITY SCHOOL DISTRICT 21,313,60
2020,6006 23 AVENUE,NY,990608,163486,-73.977099,40.615405,312,44,44600,3065490024,BK88,Borough Park,21,21,COMMUNITY SCHOOL DISTRICT 21,312,66
2020,6500 16 AVENUE,NY,985371,165925,-73.995961,40.622102,311,38,25000,3055510018,BK28,Bensonhurst West,20,20,COMMUNITY SCHOOL DISTRICT 20,311,62
2020,228 AVENUE S,NY,990692,158114,-73.976801,40.60066,311,47,41000,3070840001,BK29,Bensonhurst East,21,21,COMMUNITY SCHOOL DISTRICT 21,311,62
2020,1400 BENSON AVENUE,NY,980478,161637,-74.013585,40.610331,311,43,17000,3063910024,BK27,Bath Beach,20,20,COMMUNITY SCHOOL DISTRICT 20,311,62
2020,1 ALBEMARLE ROAD,NY,989657,174490,-73.980515,40.645609,312,39,49800,3053230032,BK41,Kensington-Ocean Parkway,15,15,COMMUNITY SCHOOL DISTRICT 15,312,66
2020,5601 16 AVENUE,NY,987234,167511,-73.98925,40.626454,312,44,47000,3054920001,BK88,Borough Park,20,75,CITYWIDE SPECIAL EDUCATION,312,66
2020,905 WINTHROP STREET,NY,1003928,179168,-73.929,40.6584,317,41,88000,3046060025,BK60,Prospect Lefferts Gardens-Wingate,18,18,COMMUNITY SCHOOL DISTRICT 18,317,67
2020,9301 AVENUE B,NY,1008035,176699,-73.914282,40.651642,317,42,93000,3047530001,BK96,Rugby-Remsen Village,18,18,COMMUNITY SCHOOL DISTRICT 18,317,67
2020,2630 BENSON AVENUE,NY,988051,155333,-73.986313,40.593028,313,47,30600,3068830001,BK26,Gravesend,21,21,COMMUNITY SCHOOL DISTRICT 21,313,60
2020,1875 EAST  17 STREET,NY,996685,159496,-73.955217,40.604447,315,48,55800,3068210244,BK44,Madison,22,22,COMMUNITY SCHOOL DISTRICT 22,315,61
2020,525 LENOX ROAD,NY,1000642,178039,-73.940922,40.655337,317,41,81400,3048440001,BK91,East Flatbush-Farragut,18,18,COMMUNITY SCHOOL DISTRICT 18,317,67
2020,6302 AVENUE U,NY,1008680,163530,-73.912005,40.615494,318,46,69800,3084640001,BK45,Georgetown-Marine Park-Bergen Beach-Mill Basin,22,22,COMMUNITY SCHOOL DISTRICT 22,318,63
2020,1633 EAST  8 STREET,NY,994083,161081,-73.964586,40.608801,315,44,42000,3066400013,BK25,Homecrest,21,21,COMMUNITY SCHOOL DISTRICT 21,315,61
2020,2401 NEPTUNE AVENUE,NY,986348,150091,-73.992447,40.57864,313,47,33000,3069650140,BK21,Seagate-Coney Island,21,21,COMMUNITY SCHOOL DISTRICT 21,313,60
2020,2500 NOSTRAND AVENUE,NY,999008,166544,-73.946836,40.623788,314,45,74800,3076290030,BK43,Midwood,22,22,COMMUNITY SCHOOL DISTRICT 22,314,70
2020,976 PRESIDENT STREET,NY,995090,182982,-73.960924,40.668913,309,35,21300,3011880001,BK63,Crown Heights South,17,17,COMMUNITY SCHOOL DISTRICT 17,309,71
2020,1580 DEAN STREET,NY,1002254,185450,-73.935093,40.675675,308,36,30900,3013470001,BK61,Crown Heights North,16,16,COMMUNITY SCHOOL DISTRICT 16,308,77
2020,5404 TILDEN AVENUE,NY,1004898,175315,-73.925592,40.647851,317,45,94600,3047390001,BK96,Rugby-Remsen Village,18,18,COMMUNITY SCHOOL DISTRICT 18,317,67
2020,249 EAST 17TH STREET,NY,994589,174243,-73.962743,40.644927,314,40,51200,3051210032,BK42,Flatbush,22,22,COMMUNITY SCHOOL DISTRICT 22,314,70
2020,72 VERONICA PLACE,NY,997159,175492,-73.95348,40.648352,317,40,79400,3051100025,BK95,Erasmus,17,17,COMMUNITY SCHOOL DISTRICT 17,317,67
2020,7000 21 AVENUE,NY,987805,162335,-73.987195,40.612247,311,47,25800,3061740036,BK28,Bensonhurst West,20,20,COMMUNITY SCHOOL DISTRICT 20,311,62
2020,18 MARLBOROUGH ROAD,NY,993558,175912,-73.966456,40.649509,314,40,50600,3050750001,BK42,Flatbush,17,17,COMMUNITY SCHOOL DISTRICT 17,314,70
2020,108 MONTROSE AVENUE,NY,999316,196754,-73.945659,40.706708,301,34,50500,3030600001,BK90,East Williamsburg,14,14,COMMUNITY SCHOOL DISTRICT 14,301,90
2020,226 BRISTOL STREET,NY,1008745,181886,-73.9117,40.6659,316,41,92400,3035410001,BK81,Brownsville,23,79,ALTERNATIVE HIGH SCHOOL DISTRICT,316,73
2020,1037 EAST  54 STREET,NY,1005374,169522,-73.923894,40.63195,318,46,72200,3077580001,BK58,Flatlands,22,22,COMMUNITY SCHOOL DISTRICT 22,318,63
2020,1084 LENOX ROAD,NY,1006416,179121,-73.9201,40.6583,317,41,88600,3046690037,BK96,Rugby-Remsen Village,18,18,COMMUNITY SCHOOL DISTRICT 18,317,67
2020,601 OCEANVIEW AVENUE,NY,994816,150675,-73.961962,40.580237,313,48,36400,3086660610,BK19,Brighton Beach,21,21,COMMUNITY SCHOOL DISTRICT 21,313,60
2020,1801 AVENUE Y,NY,997706,154635,-73.95155,40.591103,315,48,59200,3074200026,BK17,Sheepshead Bay-Gerritsen Beach-Manhattan Beach,22,22,COMMUNITY SCHOOL DISTRICT 22,315,61
2020,1866 EAST  17 STREET,NY,996498,159501,-73.955891,40.604461,315,48,55800,3068210123,BK44,Madison,22,22,COMMUNITY SCHOOL DISTRICT 22,315,61
2020,114 KOSCIUSZKO STREET,NY,998224,190883,-73.94961,40.690595,303,36,25300,3017840020,BK75,Bedford,13,13,COMMUNITY SCHOOL DISTRICT 13,303,79
2020,60 COOK STREET,NY,1000513,195316,-73.941345,40.702759,301,34,49100,3031140011,BK90,East Williamsburg,14,14,COMMUNITY SCHOOL DISTRICT 14,301,90
2020,141 MACON STREET,NY,999381,187596,-73.9454,40.6816,303,36,26900,3018450001,BK75,Bedford,13,13,COMMUNITY SCHOOL DISTRICT 13,303,79
2020,7305 FT HAMILTON PARKWAY,NY,980188,167378,-74.014633,40.626089,310,43,20600,3059230001,BK30,Dyker Heights,20,20,COMMUNITY SCHOOL DISTRICT 20,310,68
2020,875 WILLIAMS AVENUE,NY,1013858,177334,-73.893294,40.653368,318,42,98200,3081580040,BK50,Canarsie,19,19,COMMUNITY SCHOOL DISTRICT 19,318,69
2020,314 PACIFIC STREET,NY,987393,189649,-73.988667,40.687218,302,33,4300,3001880014,BK38,DUMBO-Vinegar Hill-Downtown Brooklyn-Boerum Hill,15,15,COMMUNITY SCHOOL DISTRICT 15,302,84
2020,500 MACON STREET,NY,1003628,188101,-73.930132,40.682949,303,36,29700,3016710019,BK61,Crown Heights North,16,16,COMMUNITY SCHOOL DISTRICT 16,303,81
2020,371 89th Street,NY,976076,165534,-74.029444,40.621025,310,43,6000,3060620141,BK31,Bay Ridge,20,20,COMMUNITY SCHOOL DISTRICT 20,310,68
2020,101 PARK AVENUE,NY,990876,193278,-73.976104,40.697177,302,35,21100,3020280001,BK68,Fort Greene,13,13,COMMUNITY SCHOOL DISTRICT 13,302,88
2020,62 PARK PLACE,NY,990727,186586,-73.976648,40.678809,306,39,12902,3009410050,BK37,Park Slope-Gowanus,13,13,COMMUNITY SCHOOL DISTRICT 13,306,78
2020,800 GATES AVENUE,NY,1003090,189930,-73.932066,40.68797,303,36,29300,3016360001,BK35,Stuyvesant Heights,16,16,COMMUNITY SCHOOL DISTRICT 16,303,81
2020,133 EAST  53 STREET,NY,1004349,178801,-73.92756,40.657421,317,41,86600,3046230028,BK96,Rugby-Remsen Village,18,18,COMMUNITY SCHOOL DISTRICT 18,317,67
2020,1957 NOSTRAND AVENUE,NY,998773,171585,-73.947672,40.637625,317,45,78800,3049940023,BK42,Flatbush,22,22,COMMUNITY SCHOOL DISTRICT 22,317,67
2020,241 EMERSON PLACE,NY,995028,191129,-73.961134,40.691275,302,35,19300,3019230001,BK69,Clinton Hill,13,13,COMMUNITY SCHOOL DISTRICT 13,302,88
2020,121 SARATOGA AVENUE,NY,1007234,188006,-73.9171,40.6827,316,41,37300,3015100001,BK79,Ocean Hill,23,23,COMMUNITY SCHOOL DISTRICT 23,316,73
2020,101-24 SEAVIEW AVENUE,NY,1015787,170842,-73.886373,40.635542,318,46,103400,3083290250,BK50,Canarsie,18,18,COMMUNITY SCHOOL DISTRICT 18,318,69
2020,923 JEROME STREET,NY,1017745,179209,-73.879276,40.6585,305,42,107800,3044010001,BK82,East New York,19,19,COMMUNITY SCHOOL DISTRICT 19,305,75
2020,800 BUSHWICK AVENUE,NY,1004166,192193,-73.92818,40.694179,304,34,39300,3032410037,BK78,Bushwick South,32,32,COMMUNITY SCHOOL DISTRICT 32,304,83
2020,985 ROCKAWAY AVENUE,NY,1009986,178313,-73.9074,40.6566,316,42,92200,3036360007,BK81,Brownsville,23,23,COMMUNITY SCHOOL DISTRICT 23,316,73
2020,1070 EAST  83 STREET,NY,1009664,170275,-73.908436,40.634005,318,46,99600,3080340001,BK50,Canarsie,18,18,COMMUNITY SCHOOL DISTRICT 18,318,69
2020,2529 GERRITSEN AVENUE,NY,1004287,156350,-73.92785,40.595798,318,46,66600,3085900650,BK99,park-cemetery-etc-Brooklyn,22,22,COMMUNITY SCHOOL DISTRICT 22,318,61
2020,1925 STUART STREET,NY,1001265,160336,-73.938721,40.606745,315,46,66600,3084960100,BK99,park-cemetery-etc-Brooklyn,22,22,COMMUNITY SCHOOL DISTRICT 22,315,61
2020,1070 EAST 104 STREET,NY,1014000,173970,-73.892797,40.644134,318,46,98600,3082300001,BK50,Canarsie,18,18,COMMUNITY SCHOOL DISTRICT 18,318,69
2020,8310 21ST AVENUE,NY,985804,159650,-73.9944,40.6049,311,47,28800,3063290032,BK28,Bensonhurst West,21,21,COMMUNITY SCHOOL DISTRICT 21,311,62
2020,8787 24 AVENUE,NY,986037,155923,-73.993565,40.594648,311,47,30400,3068910001,BK29,Bensonhurst East,21,21,COMMUNITY SCHOOL DISTRICT 21,311,62
2020,180 6 AVENUE,NY,990357,185799,-73.977983,40.676649,306,39,13100,3009500024,BK37,Park Slope-Gowanus,13,13,COMMUNITY SCHOOL DISTRICT 13,306,78
2020,213 OSBORN STREET,NY,1009874,182275,-73.907634,40.666942,316,41,91200,3035440135,BK81,Brownsville,23,23,COMMUNITY SCHOOL DISTRICT 23,316,73
2020,5909 BEVERLY ROAD,NY,1006232,175304,-73.920784,40.647818,317,45,93600,3047440001,BK96,Rugby-Remsen Village,18,18,COMMUNITY SCHOOL DISTRICT 18,317,67
2020,5909 BEVERLY ROAD,NY,1006232,175304,-73.920784,40.647818,317,45,93600,3047440001,BK96,Rugby-Remsen Village,18,18,COMMUNITY SCHOOL DISTRICT 18,317,67
2020,50 NAVY STREET,NY,989485,193525,-73.98112,40.697856,302,35,2300,3001110001,BK38,DUMBO-Vinegar Hill-Downtown Brooklyn-Boerum Hill,13,13,COMMUNITY SCHOOL DISTRICT 13,302,84
2020,2950 WEST  25 STREET,NY,986363,148411,-73.992393,40.574029,313,47,34200,3070540045,BK21,Seagate-Coney Island,21,21,COMMUNITY SCHOOL DISTRICT 21,313,60
2020,900 ST MARKS AVENUE,NY,1000227,184927,-73.942401,40.674244,308,36,34100,3012290028,BK61,Crown Heights North,17,17,COMMUNITY SCHOOL DISTRICT 17,308,77
2020,135 SCHENCK AVENUE,NY,1014934,186376,-73.889375,40.678182,305,37,119800,3039490018,BK82,East New York,19,19,COMMUNITY SCHOOL DISTRICT 19,305,75
2020,231 PALMETTO STREET,NY,1007760,192814,-73.915217,40.695875,304,37,43300,3033430001,BK77,Bushwick North,32,32,COMMUNITY SCHOOL DISTRICT 32,304,83
2020,301 VERMONT STREET,NY,1013843,183977,-73.893319,40.671601,305,42,114400,3037400001,BK85,East New York (Pennsylvania Ave),19,19,COMMUNITY SCHOOL DISTRICT 19,305,75
2020,301 VERMONT STREET,NY,1013843,183977,-73.893319,40.671601,305,42,114400,3037400001,BK85,East New York (Pennsylvania Ave),19,19,COMMUNITY SCHOOL DISTRICT 19,305,75
2020,330 18 STREET,NY,987373,180026,-73.988743,40.660805,307,38,14700,3008800001,BK32,Sunset Park West,15,15,COMMUNITY SCHOOL DISTRICT 15,307,72
2020,125 COVERT STREET,NY,1009046,190182,-73.910589,40.688647,304,37,41300,3034160001,BK78,Bushwick South,32,32,COMMUNITY SCHOOL DISTRICT 32,304,83
2020,700 PARK AVENUE,NY,998623,193354,-73.948166,40.697377,303,36,25700,3017390011,BK75,Bedford,14,14,COMMUNITY SCHOOL DISTRICT 14,303,79
2020,85 WATKINS STREET,NY,1009849,183759,-73.907718,40.671015,316,37,90600,3035070007,BK81,Brownsville,23,23,COMMUNITY SCHOOL DISTRICT 23,316,73
2020,88 WOODBINE STREET,NY,1007018,190948,-73.917899,40.690755,304,34,39900,3033580001,BK78,Bushwick South,32,32,COMMUNITY SCHOOL DISTRICT 32,304,83
2020,31 NEW YORK AVENUE,NY,999122,186688,-73.946381,40.679079,303,36,24700,3018680007,BK61,Crown Heights North,13,13,COMMUNITY SCHOOL DISTRICT 13,303,79
2020,350 LINWOOD STREET,NY,1016367,185988,-73.884211,40.677112,305,37,117000,3039690001,BK82,East New York,19,19,COMMUNITY SCHOOL DISTRICT 19,305,75
2020,501 WEST AVENUE,NY,992025,151505,-73.972009,40.582518,313,47,35400,3072500025,BK23,West Brighton,21,21,COMMUNITY SCHOOL DISTRICT 21,313,60
2020,501 WEST AVENUE,NY,992025,151505,-73.972009,40.582518,313,47,35400,3072500025,BK23,West Brighton,21,21,COMMUNITY SCHOOL DISTRICT 21,313,60
2020,280 HART STREET,NY,1000665,192153,-73.9408,40.6941,303,36,28100,3017730014,BK35,Stuyvesant Heights,16,16,COMMUNITY SCHOOL DISTRICT 16,303,79
2020,344 MONROE STREET,NY,999301,189083,-73.94573,40.685653,303,36,26500,3018190014,BK75,Bedford,13,13,COMMUNITY SCHOOL DISTRICT 13,303,79
2020,970 VERMONT STREET,NY,1015709,178055,-73.88662,40.65534,305,42,110400,3043920001,BK82,East New York,19,19,COMMUNITY SCHOOL DISTRICT 19,305,75
2020,209 YORK STREET,NY,989352,194958,-73.981599,40.701789,302,33,2100,3000560007,BK38,DUMBO-Vinegar Hill-Downtown Brooklyn-Boerum Hill,13,13,COMMUNITY SCHOOL DISTRICT 13,302,84
2020,616 QUINCY STREET,NY,1002135,190058,-73.935509,40.688323,303,36,29300,3016300001,BK35,Stuyvesant Heights,16,16,COMMUNITY SCHOOL DISTRICT 16,303,81
2020,794 MONROE STREET,NY,1005210,189979,-73.924422,40.6881,303,41,38500,3016430036,BK35,Stuyvesant Heights,16,16,COMMUNITY SCHOOL DISTRICT 16,303,81
2020,942 62ND STREET,NY,982157,169581,-74.007533,40.632143,310,38,12000,3057290024,BK34,Sunset Park East,20,20,COMMUNITY SCHOOL DISTRICT 20,310,68
2020,590 SHEFFIELD AVENUE,NY,1013415,180567,-73.894877,40.662243,305,42,112800,3038380018,BK85,East New York (Pennsylvania Ave),19,19,COMMUNITY SCHOOL DISTRICT 19,305,75
2020,7103 AVENUE T,NY,1009358,166062,-73.909554,40.622442,318,46,69602,3083930001,BK45,Georgetown-Marine Park-Bergen Beach-Mill Basin,22,22,COMMUNITY SCHOOL DISTRICT 22,318,63
2020,19 DOCK STREET,NY,986447,195381,-73.992076,40.702952,302,33,2100,3000367504,BK38,DUMBO-Vinegar Hill-Downtown Brooklyn-Boerum Hill,13,13,COMMUNITY SCHOOL DISTRICT 13,302,84
2020,2310 GLENWOOD ROAD,NY,996943,169760,-73.954269,40.632619,314,45,77200,3075510026,BK42,Flatbush,22,22,COMMUNITY SCHOOL DISTRICT 22,314,70
2020,2310 GLENWOOD ROAD,NY,996943,169760,-73.954269,40.632619,314,45,77200,3075510026,BK42,Flatbush,22,22,COMMUNITY SCHOOL DISTRICT 22,314,70
2020,750 CLASSON AVENUE,NY,994952,185085,-73.961418,40.674685,308,35,21500,3011670018,BK64,Prospect Heights,17,17,COMMUNITY SCHOOL DISTRICT 17,308,77
2020,424 LEONARD STREET,NY,998683,201530,-73.947932,40.719818,301,33,49900,3027120001,BK76,Greenpoint,14,14,COMMUNITY SCHOOL DISTRICT 14,301,94
2020,101 WALTON STREET,NY,998454,195415,-73.948771,40.703034,301,33,50900,3022460001,BK72,Williamsburg,14,14,COMMUNITY SCHOOL DISTRICT 14,301,90
2020,360 KEAP STREET,NY,997036,197818,-73.953881,40.709632,301,34,52700,3024240001,BK73,North Side-South Side,14,14,COMMUNITY SCHOOL DISTRICT 14,301,90
2020,180 7 AVENUE,NY,990177,184038,-73.978633,40.671816,306,39,15500,3009710028,BK37,Park Slope-Gowanus,15,15,COMMUNITY SCHOOL DISTRICT 15,306,78
2020,70 TOMPKINS AVENUE,NY,998792,193107,-73.947557,40.696698,303,36,25700,3017430018,BK75,Bedford,14,14,NULL,303,79
2020,210 CHESTER STREET,NY,1008863,181999,-73.911279,40.666187,316,41,92400,3035420001,BK81,Brownsville,23,23,COMMUNITY SCHOOL DISTRICT 23,316,73
2020,875 WILLIAMS AVENUE,NY,1013858,177334,-73.893294,40.653368,318,42,98200,3081580040,BK50,Canarsie,19,19,COMMUNITY SCHOOL DISTRICT 19,318,69
2020,1800 UTICA AVENUE,NY,1004166,168234,-73.92825,40.628417,318,45,72800,3077750001,BK58,Flatlands,22,22,COMMUNITY SCHOOL DISTRICT 22,318,63
2020,111 BRISTOL STREET,NY,1008721,182744,-73.911788,40.668232,316,41,92400,3035200008,BK81,Brownsville,23,23,COMMUNITY SCHOOL DISTRICT 23,316,73
2020,330 ALABAMA AVENUE,NY,1012477,182658,-73.898249,40.667985,305,42,113400,3037680001,BK85,East New York (Pennsylvania Ave),19,19,COMMUNITY SCHOOL DISTRICT 19,305,75
2020,2929 WEST  30 STREET,NY,985425,148643,-73.99577,40.574666,313,47,34200,3070510001,BK21,Seagate-Coney Island,21,21,COMMUNITY SCHOOL DISTRICT 21,313,60
2020,70 TOMPKINS AVENUE,NY,998792,193107,-73.947557,40.696698,303,36,25700,3017430018,BK75,Bedford,14,14,COMMUNITY SCHOOL DISTRICT 14,303,79
2020,443 ST MARKS AVENUE,NY,995319,185965,-73.960093,40.6771,308,35,30500,3011480050,BK61,Crown Heights North,17,84,OFFICE OF CHARTER SCHOOLS,308,77
2020,1224 PARK PLACE,NY,1001559,184216,-73.937601,40.67229,308,36,34300,3013700029,BK61,Crown Heights North,17,17,COMMUNITY SCHOOL DISTRICT 17,308,77
2020,130 ROCHESTER AVENUE,NY,1004035,185020,-73.928673,40.674491,308,36,30700,3013550023,BK61,Crown Heights North,16,16,COMMUNITY SCHOOL DISTRICT 16,308,77
2020,141 MACON STREET,NY,999338,187723,-73.9456,40.68192,303,36,26900,3018450001,BK75,Bedford,13,13,COMMUNITY SCHOOL DISTRICT 13,303,79
2020,2630 BENSON AVENUE,NY,988051,155333,-73.986313,40.593028,313,47,30600,3068830001,BK26,Gravesend,21,21,NULL,313,60
2020,800 VAN SICLEN AVE,NY,1015961,179729,-73.885704,40.659934,305,42,110400,3043490050,BK82,East New York,19,19,COMMUNITY SCHOOL DISTRICT 19,305,75
2020,227 STERLING PLACE,NY,992484,185693,-73.970315,40.676357,308,35,16300,3011640064,BK64,Prospect Heights,13,17,COMMUNITY SCHOOL DISTRICT 17,308,77
2020,521 WEST AVENUE,NY,992025,151505,-73.972009,40.582518,313,47,35400,3072500025,BK23,West Brighton,21,21,NULL,313,60
2020,521 WEST AVENUE,NY,992025,151505,-73.972009,40.582518,313,47,35400,3072500025,BK23,West Brighton,21,21,NULL,313,60
2020,111 BERRIMAN STREET,NY,1017567,185660,-73.879886,40.676207,305,37,119200,3039900001,BK82,East New York,19,19,COMMUNITY SCHOOL DISTRICT 19,305,75
2020,1400 PENNSYLVANIA AVENUE,NY,1016996,174887,-73.881997,40.64664,305,42,105804,3044520025,BK93,Starrett City,19,19,COMMUNITY SCHOOL DISTRICT 19,305,75
2020,35 STARR STREET,NY,1004231,194609,-73.927938,40.70081,304,34,42300,3031850001,BK78,Bushwick South,32,32,COMMUNITY SCHOOL DISTRICT 32,304,83
2020,2630 BENSON AVENUE,NY,988051,155333,-73.986313,40.593028,313,47,30600,3068830001,BK26,Gravesend,21,21,NULL,313,60
2020,35 STARR STREET,NY,1004231,194609,-73.927938,40.70081,304,34,42300,3031850001,BK78,Bushwick South,32,32,COMMUNITY SCHOOL DISTRICT 32,304,83
2020,49 FLATBUSH AVENUE EXTENSION,NY,988540,193333,-73.984528,40.69733,302,33,1500,3001200020,BK38,DUMBO-Vinegar Hill-Downtown Brooklyn-Boerum Hill,13,13,NULL,302,88
2020,170 GATES AVENUE,NY,995195,188583,-73.960536,40.684286,302,35,23100,3019830010,BK69,Clinton Hill,13,13,COMMUNITY SCHOOL DISTRICT 13,302,88
2020,46 MCKEEVER PLACE,NY,995490,181629,-73.959484,40.665199,309,35,32500,3013010001,BK63,Crown Heights South,17,17,COMMUNITY SCHOOL DISTRICT 17,309,71
2020,750 CLASSON AVENUE,NY,994952,185085,-73.961418,40.674685,308,35,21500,3011670018,BK64,Prospect Heights,17,17,COMMUNITY SCHOOL DISTRICT 17,308,77
2020,1224 PARK PLACE,NY,1001559,184216,-73.937601,40.67229,308,36,34300,3013700029,BK61,Crown Heights North,17,17,COMMUNITY SCHOOL DISTRICT 17,308,77
2020,157 WILSON STREET,NY,994772,196519,-73.962049,40.706069,301,33,53500,3021770001,BK72,Williamsburg,14,84,OFFICE OF CHARTER SCHOOLS,301,90
2020,790 EAST NEW YORK AVENUE,NY,1001919,180501,-73.936313,40.662092,309,41,87600,3048060001,BK60,Prospect Lefferts Gardens-Wingate,17,84,OFFICE OF CHARTER SCHOOLS,309,71
2020,1224 PARK PLACE,NY,1001559,184216,-73.937601,40.67229,308,36,34300,3013700029,BK61,Crown Heights North,17,84,OFFICE OF CHARTER SCHOOLS,308,77
2020,557 PENNSYLVANIA AVENUE,NY,1013844,181232,-73.893328,40.664067,305,42,112600,3038230001,BK85,East New York (Pennsylvania Ave),19,84,OFFICE OF CHARTER SCHOOLS,305,75
2020,800 VAN SICLEN AVE,NY,1015961,179729,-73.885704,40.659934,305,42,110400,3043490050,BK82,East New York,19,84,OFFICE OF CHARTER SCHOOLS,305,75
2020,1580 DEAN STREET,NY,1002254,185450,-73.935093,40.675675,308,36,30900,3013470001,BK61,Crown Heights North,16,84,OFFICE OF CHARTER SCHOOLS,308,77
2020,1957 NOSTRAND AVENUE,NY,998773,171585,-73.947672,40.637625,317,45,78800,3049940023,BK42,Flatbush,22,22,COMMUNITY SCHOOL DISTRICT 22,317,67
2020,646 FIFTH AVENUE,NY,986399,180820,-73.992254,40.662985,307,38,14300,3006340034,BK37,Park Slope-Gowanus,15,84,OFFICE OF CHARTER SCHOOLS,307,72
2020,85 WATKINS STREET,NY,1009849,183759,-73.907718,40.671015,316,37,90600,3035070007,BK81,Brownsville,23,23,COMMUNITY SCHOOL DISTRICT 23,316,73
2020,1426 FREEPORT LOOP,NY,1017241,174731,-73.881115,40.646211,305,42,105804,3044520040,BK93,Starrett City,19,19,COMMUNITY SCHOOL DISTRICT 19,305,75
2020,1495 HERKIMER STREET,NY,1010838,186133,-73.904143,40.677528,316,37,36700,3015540016,BK79,Ocean Hill,23,23,COMMUNITY SCHOOL DISTRICT 23,316,73
2020,965 EAST 107TH STREET,NY,1014291,175159,-73.891743,40.647396,318,46,98400,3082150012,BK50,Canarsie,18,18,COMMUNITY SCHOOL DISTRICT 18,318,69
2020,70 TOMPKINS AVENUE,NY,998792,193107,-73.947557,40.696698,303,36,25700,3017430018,BK75,Bedford,14,84,OFFICE OF CHARTER SCHOOLS,303,79
2020,70 TOMPKINS AVENUE,NY,998792,193107,-73.947557,40.696698,303,36,25700,3017430018,BK75,Bedford,14,75,CITYWIDE SPECIAL EDUCATION,303,79
2020,383 STATE STREET,NY,988878,189727,-73.983312,40.687432,302,33,4100,3001720055,BK38,DUMBO-Vinegar Hill-Downtown Brooklyn-Boerum Hill,15,75,CITYWIDE SPECIAL EDUCATION,302,84
2020,3000 WEST 1 STREET,NY,992619,149753,-73.969872,40.577709,313,48,35602,3072740107,BK23,West Brighton,21,75,CITYWIDE SPECIAL EDUCATION,313,60
2020,355 37 STREET,NY,982816,177658,-74.005168,40.654306,307,38,8400,3006960031,BK32,Sunset Park West,15,75,CITYWIDE SPECIAL EDUCATION,307,72
2020,512 CARROLL STREET,NY,988272,185634,-73.9855,40.676198,306,39,11900,3004550001,BK37,Park Slope-Gowanus,15,75,CITYWIDE SPECIAL EDUCATION,306,78
2020,185 ELLERY STREET,NY,999442,194024,-73.945211,40.699214,303,36,25700,3017260014,BK75,Bedford,14,75,CITYWIDE SPECIAL EDUCATION,303,79
2020,46 MCKEEVER PLACE,NY,995490,181629,-73.959484,40.665199,309,35,32500,3013010001,BK63,Crown Heights South,17,17,COMMUNITY SCHOOL DISTRICT 17,309,71
2020,194 HARMAN STREET,NY,1006381,193605,-73.920187,40.69805,304,37,43100,3032870001,BK77,Bushwick North,32,32,COMMUNITY SCHOOL DISTRICT 32,304,83
2020,200 WOODBINE STREET,NY,1007777,191964,-73.915159,40.693542,304,37,41500,3033600001,BK78,Bushwick South,32,32,COMMUNITY SCHOOL DISTRICT 32,304,83
2020,610 HENRY STREET,NY,983868,187044,-74.0014,40.6801,306,39,6300,3003690001,BK33,Carroll Gardens-Columbia Street-Red Hook,15,15,COMMUNITY SCHOOL DISTRICT 15,306,76
2020,1077 REMSEN AVENUE,NY,1009815,173437,-73.90788,40.642684,318,46,96400,3081600022,BK50,Canarsie,18,84,OFFICE OF CHARTER SCHOOLS,318,69
2020,370 MARCY AVENUE,NY,997087,194961,-73.953702,40.70179,301,33,53100,3022360009,BK75,Bedford,14,14,COMMUNITY SCHOOL DISTRICT 14,301,90
2020,2500 NOSTRAND AVENUE,NY,999008,166544,-73.946836,40.623788,314,45,74800,3076290030,BK43,Midwood,22,22,COMMUNITY SCHOOL DISTRICT 22,314,70
2020,911 FLATBUSH AVENUE,NY,996134,175947,-73.957173,40.649602,314,40,79400,3051030010,BK95,Erasmus,17,17,NULL,314,70
2020,1300 GREENE AVENUE,NY,1006686,193550,-73.919088,40.697898,304,37,43100,3032980001,BK77,Bushwick North,32,32,COMMUNITY SCHOOL DISTRICT 32,304,83
2020,242 COOPER STREET,NY,1010680,190634,-73.904695,40.689883,304,37,40900,3034420001,BK77,Bushwick North,32,32,COMMUNITY SCHOOL DISTRICT 32,304,83
2020,125 STUYVESANT AVENUE,NY,1003037,191204,-73.932254,40.691467,303,36,29100,3016160001,BK35,Stuyvesant Heights,16,16,COMMUNITY SCHOOL DISTRICT 16,303,81
2020,370 FOUNTAIN AVENUE,NY,1019054,183408,-73.874537,40.67002,305,42,111800,3042780001,BK82,East New York,19,84,OFFICE OF CHARTER SCHOOLS,305,75
2020,1224 PARK PLACE,NY,1001683,184377,-73.9372,40.6727,308,36,34300,3013700029,BK61,Crown Heights North,17,17,COMMUNITY SCHOOL DISTRICT 17,308,77
2020,790 EAST NEW YORK AVENUE,NY,1001900,180630,-73.9364,40.6624,309,41,87600,3048060001,BK60,Prospect Lefferts Gardens-Wingate,17,17,COMMUNITY SCHOOL DISTRICT 17,309,71
2020,104 SUTTER AVENUE,NY,1007032,181766,-73.91788,40.665553,316,41,90000,3035350016,BK81,Brownsville,23,23,COMMUNITY SCHOOL DISTRICT 23,316,73
2020,125 STUYVESANT AVENUE,NY,1003037,191204,-73.932254,40.691467,303,36,29100,3016160001,BK35,Stuyvesant Heights,16,16,NULL,303,81
2020,188 ROCHESTER AVENUE,NY,1003968,184371,-73.928917,40.67271,308,36,34700,3013670022,BK61,Crown Heights North,17,17,COMMUNITY SCHOOL DISTRICT 17,308,77
2020,1150 EAST NEW YORK AVENUE,NY,1005367,182019,-73.923881,40.666251,316,41,90000,3035080012,BK81,Brownsville,17,84,OFFICE OF CHARTER SCHOOLS,316,73
2020,110 CHESTER STREET,NY,1008721,182744,-73.911788,40.668232,316,41,92400,3035200008,BK81,Brownsville,23,75,CITYWIDE SPECIAL EDUCATION,316,73
2020,490 FENIMORE STREET,NY,999133,179250,-73.946358,40.658663,309,40,81000,3048150020,BK60,Prospect Lefferts Gardens-Wingate,17,17,COMMUNITY SCHOOL DISTRICT 17,309,71
2020,60 EAST  94 STREET,NY,1004231,180975,-73.927979,40.663388,317,41,88200,3045950215,BK96,Rugby-Remsen Village,17,17,COMMUNITY SCHOOL DISTRICT 17,317,67
2020,2707 ALBEMARLE ROAD,NY,997663,175465,-73.951664,40.648277,317,40,82400,3051110001,BK95,Erasmus,17,17,COMMUNITY SCHOOL DISTRICT 17,317,67
2020,51 CHRISTOPHER AVENUE,NY,1010320,184197,-73.906018,40.672216,316,37,90800,3036930001,BK81,Brownsville,23,23,COMMUNITY SCHOOL DISTRICT 23,316,73
2020,400 IRVING AVENUE,NY,1008721,193027,-73.911751,40.696457,304,37,43500,3033650098,BK77,Bushwick North,32,32,NULL,304,83
2020,1065 ELTON STREET,NY,1019192,178761,-73.874064,40.657266,305,42,107000,3044490001,BK82,East New York,19,19,NULL,305,75
2020,2839 BEDFORD AVENUE,NY,997474,169837,-73.952356,40.632829,314,45,77200,3075530041,BK42,Flatbush,22,22,NULL,314,70
2020,616 QUINCY STREET,NY,1002135,190058,-73.935509,40.688323,303,36,29300,3016300001,BK35,Stuyvesant Heights,16,84,OFFICE OF CHARTER SCHOOLS,303,81
2020,911 FLATBUSH AVENUE,NY,996134,175947,-73.957173,40.649602,314,40,79400,3051030010,BK95,Erasmus,17,17,NULL,314,70
2020,145 PENNSYLVANIA AVENUE,NY,1013105,184765,-73.895976,40.673766,305,37,114400,3037040001,BK85,East New York (Pennsylvania Ave),19,19,NULL,305,75
2020,2800 OCEAN PARKWAY,NY,992935,151545,-73.968733,40.582627,313,47,35400,3072540001,BK23,West Brighton,21,21,NULL,313,60
2020,300 WILLOUGHBY AVENUE,NY,995847,191399,-73.95818,40.692015,303,33,23500,3019260010,BK69,Clinton Hill,13,13,NULL,303,79
2020,325 SOUTH  3 STREET,NY,996815,197991,-73.954678,40.710107,301,34,52700,3024230001,BK73,North Side-South Side,14,14,COMMUNITY SCHOOL DISTRICT 14,301,90
2020,5800 TILDEN AVENUE,NY,1005836,175271,-73.922212,40.647728,317,45,93600,3047420001,BK96,Rugby-Remsen Village,18,18,COMMUNITY SCHOOL DISTRICT 18,317,67
2020,600 LAFAYETTE AVENUE,NY,997918,190511,-73.950714,40.689574,303,36,25100,3017890012,BK75,Bedford,13,84,OFFICE OF CHARTER SCHOOLS,303,79
2020,49 FLATBUSH AVENUE EXTENSION,NY,988540,193333,-73.984528,40.69733,302,33,1500,3001200020,BK38,DUMBO-Vinegar Hill-Downtown Brooklyn-Boerum Hill,13,13,NULL,302,88
2020,999 JAMAICA AVENUE,NY,1020493,191783,-73.869305,40.693002,305,37,118000,3040940001,BK99,park-cemetery-etc-Brooklyn,19,19,COMMUNITY SCHOOL DISTRICT 19,305,75
2020,1065 ELTON STREET,NY,1019192,178761,-73.874064,40.657266,305,42,107000,3044490001,BK82,East New York,19,19,NULL,305,75
2020,112 SCHERMERHORN STREET,NY,987198,190665,-73.989369,40.690007,302,33,4300,3001690009,BK38,DUMBO-Vinegar Hill-Downtown Brooklyn-Boerum Hill,15,15,NULL,302,84
2020,3787 BEDFORD AVENUE,NY,998782,161702,-73.947661,40.610499,315,48,64200,3067880001,BK44,Madison,22,22,NULL,315,61
2020,284 BALTIC STREET,NY,986110,188843,-73.993293,40.685006,306,33,6900,3004020001,BK38,DUMBO-Vinegar Hill-Downtown Brooklyn-Boerum Hill,15,15,NULL,306,76
2020,29 FT GREENE PLACE,NY,990785,190261,-73.976435,40.688896,302,35,3300,3020980013,BK68,Fort Greene,13,13,NULL,302,88
2020,50 BEDFORD AVENUE,NY,997187,202123,-73.953328,40.721448,301,33,51700,3026700001,BK73,North Side-South Side,14,14,COMMUNITY SCHOOL DISTRICT 14,301,94
2020,400 PENNSYLVANIA AVENUE,NY,1013449,182466,-73.8947,40.6675,305,42,115600,3037880001,BK85,East New York (Pennsylvania Ave),19,19,COMMUNITY SCHOOL DISTRICT 19,305,75
2020,49 FLATBUSH AVENUE EXTENSION,NY,988540,193333,-73.984528,40.69733,302,33,1500,3001200020,BK38,DUMBO-Vinegar Hill-Downtown Brooklyn-Boerum Hill,13,13,NULL,302,88
2020,883 CLASSON AVENUE,NY,994876,183505,-73.9617,40.6703,309,35,21300,3011870001,BK63,Crown Heights South,17,17,COMMUNITY SCHOOL DISTRICT 17,309,71
2020,500 19 STREET,NY,989058,178367,-73.983116,40.656952,307,38,150200,3008890001,BK40,Windsor Terrace,15,15,COMMUNITY SCHOOL DISTRICT 15,307,72
2020,330 18 STREET,NY,987373,180026,-73.988743,40.660805,307,38,14700,3008800001,BK32,Sunset Park West,15,15,COMMUNITY SCHOOL DISTRICT 15,307,72
2020,1601 80 STREET,NY,983609,162624,-74.002308,40.613041,311,43,18200,3062710001,BK28,Bensonhurst West,20,20,NULL,311,62
2020,76 RIVERDALE AVENUE,NY,1008247,179605,-73.913508,40.659618,316,42,89600,3035970011,BK81,Brownsville,23,23,COMMUNITY SCHOOL DISTRICT 23,316,73
2020,345 DEAN STREET,NY,989723,188459,-73.980266,40.683951,302,33,3900,3001920013,BK38,DUMBO-Vinegar Hill-Downtown Brooklyn-Boerum Hill,15,15,COMMUNITY SCHOOL DISTRICT 15,302,84
2020,610 HENRY STREET,NY,983689,186823,-74.002022,40.679462,306,39,6300,3003690001,BK33,Carroll Gardens-Columbia Street-Red Hook,15,15,NULL,306,76
2020,223 GRAHAM AVENUE,NY,999647,197868,-73.944463,40.709765,301,34,50500,3030250001,BK90,East Williamsburg,14,14,NULL,301,90
2020,50 AVENUE X,NY,989270,153527,-73.981925,40.58807,313,47,30800,3071850020,BK26,Gravesend,21,21,COMMUNITY SCHOOL DISTRICT 21,313,60
2020,1400 PENNSYLVANIA AVENUE,NY,1016996,174887,-73.881997,40.64664,305,42,105804,3044520025,BK93,Starrett City,19,19,COMMUNITY SCHOOL DISTRICT 19,305,75
2020,3000 AVENUE X,NY,1001848,155386,-73.936635,40.593157,315,48,62600,3074250002,BK17,Sheepshead Bay-Gerritsen Beach-Manhattan Beach,22,22,COMMUNITY SCHOOL DISTRICT 22,315,61
2020,223 GRAHAM AVENUE,NY,999647,197868,-73.944463,40.709765,301,34,50500,3030250001,BK90,East Williamsburg,14,14,NULL,301,90
2020,1700 FULTON STREET,NY,1003221,186472,-73.931604,40.678478,303,36,27100,3017010001,BK61,Crown Heights North,16,16,NULL,303,81
2020,911 FLATBUSH AVENUE,NY,995768,175927,-73.9585,40.6495,314,40,79400,3051030010,BK95,Erasmus,17,17,COMMUNITY SCHOOL DISTRICT 17,314,70
2020,237 7 AVENUE,NY,989996,183241,-73.9793,40.6696,306,39,15500,3010820001,BK37,Park Slope-Gowanus,15,15,COMMUNITY SCHOOL DISTRICT 15,306,78
2020,237 7 AVENUE,NY,990192,183105,-73.97858,40.669255,306,39,15500,3010820001,BK37,Park Slope-Gowanus,15,15,NULL,306,78
2020,237 7 AVENUE,NY,990192,183105,-73.97858,40.669255,306,39,15500,3010820001,BK37,Park Slope-Gowanus,15,15,NULL,306,78
2020,237 7 AVENUE,NY,990192,183105,-73.97858,40.669255,306,39,15500,3010820001,BK37,Park Slope-Gowanus,15,15,NULL,306,78
2020,2630 BENSON AVENUE,NY,988051,155333,-73.986313,40.593028,313,47,30600,3068830001,BK26,Gravesend,21,21,NULL,313,60
2020,911 FLATBUSH AVENUE,NY,995768,175927,-73.9585,40.6495,314,40,79400,3051030010,BK95,Erasmus,17,17,COMMUNITY SCHOOL DISTRICT 17,314,70
2020,600 KINGSTON AVENUE,NY,1000215,179334,-73.9425,40.6589,309,40,81000,3048110001,BK60,Prospect Lefferts Gardens-Wingate,17,17,COMMUNITY SCHOOL DISTRICT 17,309,71
2020,198 VARET STREET,NY,1002004,195658,-73.935969,40.703703,301,34,48500,0,BK78,Bushwick South,14,84,OFFICE OF CHARTER SCHOOLS,301,90
2020,850 GRAND STREET,NY,1001183,198368,-73.938921,40.711134,301,34,48500,3030160001,BK78,Bushwick South,14,14,NULL,301,90
2020,850 GRAND STREET,NY,1001183,198368,-73.938921,40.711134,301,34,48500,3030160001,BK78,Bushwick South,14,14,NULL,301,90
2020,850 GRAND STREET,NY,1001183,198368,-73.938921,40.711134,301,34,48500,3030160001,BK78,Bushwick South,14,14,NULL,301,90
2020,911 FLATBUSH AVENUE,NY,995768,175927,-73.9585,40.6495,314,40,79400,3051030010,BK95,Erasmus,17,17,COMMUNITY SCHOOL DISTRICT 17,314,70
2020,400 IRVING AVENUE,NY,1008987,193214,-73.9108,40.697,304,37,43500,3033650098,BK77,Bushwick North,32,32,COMMUNITY SCHOOL DISTRICT 32,304,83
2020,283 ADAMS STREET,NY,987488,192349,-73.988323,40.694629,302,33,1100,3001400010,BK38,DUMBO-Vinegar Hill-Downtown Brooklyn-Boerum Hill,13,13,NULL,302,84
2020,430 HOWARD AVENUE,NY,1006415,184524,-73.920095,40.673124,316,41,36300,3014570032,BK79,Ocean Hill,23,17,COMMUNITY SCHOOL DISTRICT 17,316,73
2020,350 67 STREET,NY,977750,171252,-74.023419,40.636721,310,43,7000,3058500030,BK31,Bay Ridge,20,20,NULL,310,68
2020,760 DEKALB AVENUE,NY,999199,191252,-73.946093,40.691606,303,36,26100,3017800033,BK75,Bedford,13,84,OFFICE OF CHARTER SCHOOLS,303,79
2020,257 NORTH  6 STREET,NY,996776,199978,-73.954815,40.715561,301,33,51900,3023300011,BK73,North Side-South Side,14,14,NULL,301,94
2020,402 EASTERN PARKWAY,NY,996681,183219,-73.955188,40.669561,309,35,32300,3012670001,BK63,Crown Heights South,17,17,NULL,309,71
2020,8301 SHORE ROAD,NY,973673,167649,-74.038103,40.626827,310,43,4600,3060130001,BK31,Bay Ridge,20,20,NULL,310,68
2020,225 ADELPHI STREET,NY,992321,190934,-73.970896,40.690742,302,35,18300,3020910003,BK68,Fort Greene,13,13,COMMUNITY SCHOOL DISTRICT 13,302,88
2020,2021 BERGEN STREET,NY,1008470,185011,-73.912685,40.674456,316,41,36501,3014480001,BK79,Ocean Hill,23,23,NULL,316,73
2020,70 TOMPKINS AVENUE,NY,998792,193107,-73.947557,40.696698,303,36,25700,3017430018,BK75,Bedford,14,14,COMMUNITY SCHOOL DISTRICT 14,303,79
2020,3000 AVENUE X,NY,1001848,155386,-73.936635,40.593157,315,48,62600,3074250002,BK17,Sheepshead Bay-Gerritsen Beach-Manhattan Beach,22,22,NULL,315,61
2020,284 BALTIC STREET,NY,986110,188843,-73.993293,40.685006,306,33,6900,3004020001,BK38,DUMBO-Vinegar Hill-Downtown Brooklyn-Boerum Hill,15,15,COMMUNITY SCHOOL DISTRICT 15,306,76
2020,1396 BROADWAY,NY,1006269,190089,-73.920603,40.688399,303,41,37500,3014820001,BK35,Stuyvesant Heights,16,16,NULL,303,81
2020,561 GRAND AVENUE,NY,994891,186508,-73.961636,40.678591,308,35,30500,3011410005,BK61,Crown Heights North,17,13,NULL,308,77
2020,1600 ROCKAWAY PARKWAY,NY,1012391,172660,-73.898601,40.640543,318,46,99000,3082220001,BK50,Canarsie,18,18,COMMUNITY SCHOOL DISTRICT 18,318,69
2020,400 PENNSYLVANIA AVENUE,NY,1013345,182252,-73.895122,40.666868,305,42,115600,3037880001,BK85,East New York (Pennsylvania Ave),19,19,NULL,305,75
2020,330 59 STREET,NY,978894,173157,-74.019299,40.64195,307,38,7400,3008620012,BK32,Sunset Park West,20,20,COMMUNITY SCHOOL DISTRICT 20,307,72
2020,400 PENNSYLVANIA AVENUE,NY,1013345,182252,-73.895122,40.666868,305,42,115600,3037880001,BK85,East New York (Pennsylvania Ave),19,19,NULL,305,75
2020,5800 20 AVENUE,NY,989085,165633,-73.982583,40.621299,312,44,46800,3055060006,BK88,Borough Park,20,20,NULL,312,66
2020,330 59 STREET,NY,978894,173157,-74.019299,40.64195,307,38,7400,3008620012,BK32,Sunset Park West,20,20,COMMUNITY SCHOOL DISTRICT 20,307,72
2020,400 PENNSYLVANIA AVENUE,NY,1013345,182252,-73.895122,40.666868,305,42,115600,3037880001,BK85,East New York (Pennsylvania Ave),19,19,NULL,305,75
2020,510 WAVERLY AVENUE,NY,993700,187903,-73.965928,40.682422,302,35,19900,3020110039,BK69,Clinton Hill,13,84,OFFICE OF CHARTER SCHOOLS,302,88
2020,116 NASSAU STREET,NY,987987,193677,-73.986523,40.698274,302,33,1300,3001070001,BK38,DUMBO-Vinegar Hill-Downtown Brooklyn-Boerum Hill,13,13,COMMUNITY SCHOOL DISTRICT 13,302,84
2020,400 PENNSYLVANIA AVENUE,NY,1013345,182252,-73.895122,40.666868,305,42,115600,3037880001,BK85,East New York (Pennsylvania Ave),19,19,NULL,305,75
2020,231 PALMETTO STREET,NY,1007781,192627,-73.9151,40.6954,304,37,43300,3033430001,BK77,Bushwick North,32,32,COMMUNITY SCHOOL DISTRICT 32,304,83
2020,210 CHESTER STREET,NY,1008863,181999,-73.911279,40.666187,316,41,92400,3035420001,BK81,Brownsville,23,84,OFFICE OF CHARTER SCHOOLS,316,73
2020,226 BRISTOL STREET,NY,1008635,181773,-73.912102,40.665568,316,41,92400,3035410001,BK81,Brownsville,23,23,NULL,316,73
2020,6565 FLATLANDS AVENUE,NY,1007307,170435,-73.916927,40.634451,318,46,95000,3079980005,BK50,Canarsie,18,18,COMMUNITY SCHOOL DISTRICT 18,318,69
2020,4222 4TH AVENUE,NY,981864,176418,-74.008106,40.650793,307,38,8200,3007230025,BK32,Sunset Park West,15,15,COMMUNITY SCHOOL DISTRICT 15,307,72
2020,141 MACON STREET,NY,999338,187723,-73.9456,40.68192,303,36,26900,3018450001,BK75,Bedford,13,84,OFFICE OF CHARTER SCHOOLS,303,79
2020,985 ROCKAWAY AVENUE,NY,1010148,178159,-73.906662,40.655644,316,42,92200,3036360007,BK81,Brownsville,23,23,COMMUNITY SCHOOL DISTRICT 23,316,73
2020,347 BALTIC STREET,NY,986778,188793,-73.990884,40.684869,306,33,6900,3003970011,BK38,DUMBO-Vinegar Hill-Downtown Brooklyn-Boerum Hill,15,15,NULL,306,76
2020,112 SCHERMERHORN STREET,NY,987198,190665,-73.989369,40.690007,302,33,4300,3001690009,BK38,DUMBO-Vinegar Hill-Downtown Brooklyn-Boerum Hill,15,15,COMMUNITY SCHOOL DISTRICT 15,302,84
2020,1077 REMSEN AVENUE,NY,1009815,173437,-73.90788,40.642684,318,46,96400,3081600022,BK50,Canarsie,18,18,COMMUNITY SCHOOL DISTRICT 18,318,69
2020,1137 HERKIMER STREET,NY,1007797,186347,-73.915106,40.678124,316,41,30100,3015500001,BK79,Ocean Hill,23,23,COMMUNITY SCHOOL DISTRICT 23,316,73
2020,1925 STUART STREET,NY,1001265,160336,-73.938721,40.606745,315,46,66600,3084960100,BK99,park-cemetery-etc-Brooklyn,22,17,COMMUNITY SCHOOL DISTRICT 17,315,61
2020,883 CLASSON AVENUE,NY,995155,183307,-73.960689,40.669805,309,35,21300,3011870001,BK63,Crown Heights South,17,17,NULL,309,71
2020,1600 AVENUE L,NY,995593,165042,-73.959141,40.619671,314,44,76800,3067340109,BK43,Midwood,21,21,NULL,314,70
2020,283 ADAMS STREET,NY,987488,192349,-73.988323,40.694629,302,33,1100,3001400010,BK38,DUMBO-Vinegar Hill-Downtown Brooklyn-Boerum Hill,13,13,NULL,302,84
2020,883 CLASSON AVENUE,NY,995155,183307,-73.960689,40.669805,309,35,21300,3011870001,BK63,Crown Heights South,17,17,COMMUNITY SCHOOL DISTRICT 17,309,71
2020,1053 41ST STREET,NY,986428,173400,-73.992151,40.642619,312,39,11000,3055870038,BK34,Sunset Park East,15,15,NULL,312,66
2020,362 SCHERMERHORN STREET,NY,989844,189259,-73.979829,40.686147,302,33,3900,3001740001,BK38,DUMBO-Vinegar Hill-Downtown Brooklyn-Boerum Hill,15,15,COMMUNITY SCHOOL DISTRICT 15,302,84
2020,600 KINGSTON AVENUE,NY,999832,179253,-73.943839,40.658671,309,40,81000,3048110001,BK60,Prospect Lefferts Gardens-Wingate,17,17,NULL,309,71
2020,1025 EASTERN PARKWAY,NY,1002471,183221,-73.934316,40.669557,308,35,35300,3013890035,BK61,Crown Heights North,17,17,COMMUNITY SCHOOL DISTRICT 17,308,77
2020,600 KINGSTON AVENUE,NY,999832,179253,-73.943839,40.658671,309,40,81000,3048110001,BK60,Prospect Lefferts Gardens-Wingate,17,17,NULL,309,71
2020,787 LAFAYETTE AVENUE,NY,1000681,191204,-73.940749,40.691472,303,36,28100,3017870014,BK35,Stuyvesant Heights,16,16,COMMUNITY SCHOOL DISTRICT 16,303,79
2020,1830 SHORE BOULEVARD,NY,1002459,149994,-73.934449,40.578356,315,48,61600,3087600060,BK17,Sheepshead Bay-Gerritsen Beach-Manhattan Beach,22,22,NULL,315,61
2020,51 SAINT EDWARDS STREET,NY,990441,192608,-73.977674,40.695339,302,35,2901,3020390002,BK68,Fort Greene,13,84,OFFICE OF CHARTER SCHOOLS,302,88
2020,911 FLATBUSH AVENUE,NY,996134,175947,-73.957173,40.649602,314,40,79400,3051030010,BK95,Erasmus,17,17,NULL,314,70
2020,1300 GREENE AVENUE,NY,1006686,193550,-73.919088,40.697898,304,37,43100,3032980001,BK77,Bushwick North,32,84,OFFICE OF CHARTER SCHOOLS,304,83
2020,911 FLATBUSH AVENUE,NY,996134,175947,-73.957173,40.649602,314,40,79400,3051030010,BK95,Erasmus,17,17,NULL,314,70
2020,50 AVENUE X,NY,989270,153527,-73.981925,40.58807,313,47,30800,3071850020,BK26,Gravesend,21,21,NULL,313,60
2020,911 FLATBUSH AVENUE,NY,996134,175947,-73.957173,40.649602,314,40,79400,3051030010,BK95,Erasmus,17,17,NULL,314,70
2020,600 KINGSTON AVENUE,NY,999832,179253,-73.943839,40.658671,309,40,81000,3048110001,BK60,Prospect Lefferts Gardens-Wingate,17,17,COMMUNITY SCHOOL DISTRICT 17,309,71
2020,1155 DEKALB AVENUE,NY,1003851,192391,-73.929315,40.694723,304,34,39300,3032300027,BK78,Bushwick South,32,32,NULL,304,83
2020,600 KINGSTON AVENUE,NY,999832,179253,-73.943839,40.658671,309,40,81000,3048110001,BK60,Prospect Lefferts Gardens-Wingate,17,17,NULL,309,71
2020,883 CLASSON AVENUE,NY,995155,183307,-73.960689,40.669805,309,35,21300,3011870001,BK63,Crown Heights South,17,17,NULL,309,71
2020,883 CLASSON AVENUE,NY,995155,183307,-73.960689,40.669805,309,35,21300,3011870001,BK63,Crown Heights South,17,17,NULL,309,71
2020,400 IRVING AVENUE,NY,1008721,193027,-73.911751,40.696457,304,37,43500,3033650098,BK77,Bushwick North,32,32,NULL,304,83
2020,400 IRVING AVENUE,NY,1008721,193027,-73.911751,40.696457,304,37,43500,3033650098,BK77,Bushwick North,32,32,COMMUNITY SCHOOL DISTRICT 32,304,83
2020,400 IRVING AVENUE,NY,1008721,193027,-73.911751,40.696457,304,37,43500,3033650098,BK77,Bushwick North,32,32,NULL,304,83
2020,832 MARCY AVENUE,NY,998707,188719,-73.947873,40.684654,303,36,24900,3018230038,BK75,Bedford,13,13,NULL,303,79
2020,321 PALMETTO STREET,NY,1008327,193359,-73.913172,40.697378,304,37,43300,3033440136,BK77,Bushwick North,32,32,NULL,304,83
2020,350 CONEY ISLAND AVENUE,NY,991933,175746,-73.972312,40.649055,307,39,50400,3053220069,BK40,Windsor Terrace,15,22,NULL,307,72
2020,797 BUSHWICK AVENUE,NY,1004396,192651,-73.927349,40.695436,304,34,39300,3032420001,BK78,Bushwick South,32,32,NULL,304,83
2020,574 DUMONT AVENUE,NY,1012657,181733,-73.897604,40.665446,305,42,113000,3038020015,BK85,East New York (Pennsylvania Ave),19,19,COMMUNITY SCHOOL DISTRICT 19,305,75
2020,257 NORTH  6 STREET,NY,996776,199978,-73.954815,40.715561,301,33,51900,3023300011,BK73,North Side-South Side,14,14,NULL,301,94
2020,2630 BENSON AVENUE,NY,988051,155333,-73.986313,40.593028,313,47,30600,3068830001,BK26,Gravesend,21,21,NULL,313,60
2020,257 NORTH  6 STREET,NY,996776,199978,-73.954815,40.715561,301,33,51900,3023300011,BK73,North Side-South Side,14,14,NULL,301,94
2020,125 COVERT STREET,NY,1009046,190182,-73.910589,40.688647,304,37,41300,3034160001,BK78,Bushwick South,32,32,COMMUNITY SCHOOL DISTRICT 32,304,83
2020,5800 TILDEN AVENUE,NY,1005836,175271,-73.922212,40.647728,317,45,93600,3047420001,BK96,Rugby-Remsen Village,18,18,NULL,317,67
2020,231 PALMETTO STREET,NY,1007760,192814,-73.915217,40.695875,304,37,43300,3033430001,BK77,Bushwick North,32,32,NULL,304,83
2020,6565 FLATLANDS AVENUE,NY,1007307,170435,-73.916927,40.634451,318,46,95000,3079980005,BK50,Canarsie,18,18,NULL,318,69
2020,6565 FLATLANDS AVENUE,NY,1007307,170435,-73.916927,40.634451,318,46,95000,3079980005,BK50,Canarsie,18,18,NULL,318,69
2020,1150 EAST NEW YORK AVENUE,NY,1005367,182019,-73.923881,40.666251,316,41,90000,3035080012,BK81,Brownsville,17,17,NULL,316,73
2020,5800 TILDEN AVENUE,NY,1005836,175271,-73.922212,40.647728,317,45,93600,3047420001,BK96,Rugby-Remsen Village,18,18,NULL,317,67
2020,80 UNDERHILL AVENUE,NY,993588,186494,-73.966333,40.678554,308,35,20500,3011450026,BK64,Prospect Heights,13,13,COMMUNITY SCHOOL DISTRICT 13,308,77
2020,2630 BENSON AVENUE,NY,988051,155333,-73.986313,40.593028,313,47,30600,3068830001,BK26,Gravesend,21,21,NULL,313,60
2020,545 WILLOUGHBY AVENUE,NY,998792,192149,-73.9476,40.6941,303,36,25901,3017590013,BK75,Bedford,14,14,COMMUNITY SCHOOL DISTRICT 14,303,79
2020,832 MARCY AVENUE,NY,998707,188719,-73.947873,40.684654,303,36,24900,3018230038,BK75,Bedford,13,13,NULL,303,79
2020,6565 FLATLANDS AVENUE,NY,1007307,170435,-73.916927,40.634451,318,46,95000,3079980005,BK50,Canarsie,18,18,NULL,318,69
2020,208 NORTH  5 STREET,NY,996087,199871,-73.9573,40.715268,301,34,51900,3023450001,BK73,North Side-South Side,14,14,COMMUNITY SCHOOL DISTRICT 14,301,94
2020,6565 FLATLANDS AVENUE,NY,1007307,170435,-73.916927,40.634451,318,46,95000,3079980005,BK50,Canarsie,18,18,NULL,318,69
2020,325 BUSHWICK AVENUE,NY,1001051,196203,-73.9394,40.7052,301,34,48500,3030910001,BK78,Bushwick South,14,14,COMMUNITY SCHOOL DISTRICT 14,301,90
2020,832 MARCY AVENUE,NY,998907,188846,-73.9472,40.685,303,36,24900,3018230038,BK75,Bedford,13,13,COMMUNITY SCHOOL DISTRICT 13,303,79
2020,905 WINTHROP STREET,NY,1004020,179408,-73.928744,40.659088,317,41,88000,3046060025,BK60,Prospect Lefferts Gardens-Wingate,18,18,COMMUNITY SCHOOL DISTRICT 18,317,67
2020,207 BUSHWICK AVENUE,NY,1001055,197519,-73.939385,40.708804,301,34,48500,3030460001,BK78,Bushwick South,14,14,COMMUNITY SCHOOL DISTRICT 14,301,90
2020,999 JAMAICA AVENUE,NY,1020493,191783,-73.869305,40.693002,305,37,118000,3040940001,BK99,park-cemetery-etc-Brooklyn,19,19,NULL,305,75
2020,130 ROCHESTER AVENUE,NY,1004035,185020,-73.928673,40.674491,308,36,30700,3013550023,BK61,Crown Heights North,16,16,COMMUNITY SCHOOL DISTRICT 16,308,77
2020,6565 FLATLANDS AVENUE,NY,1007361,170010,-73.9167,40.6333,318,46,95000,3079980005,BK50,Canarsie,18,22,COMMUNITY SCHOOL DISTRICT 22,318,69
2020,223 GRAHAM AVENUE,NY,999647,197868,-73.944463,40.709765,301,34,50500,3030250001,BK90,East Williamsburg,14,14,NULL,301,90
2020,790 EAST NEW YORK AVENUE,NY,1001919,180501,-73.936313,40.662092,309,41,87600,3048060001,BK60,Prospect Lefferts Gardens-Wingate,17,17,COMMUNITY SCHOOL DISTRICT 17,309,71
2020,1084 LENOX ROAD,NY,1006497,178909,-73.919818,40.657712,317,41,88600,3046690037,BK96,Rugby-Remsen Village,18,18,COMMUNITY SCHOOL DISTRICT 18,317,67
2020,905 WINTHROP STREET,NY,1004020,179408,-73.928744,40.659088,317,41,88000,3046060025,BK60,Prospect Lefferts Gardens-Wingate,18,18,NULL,317,67
2020,1186 CARROLL STREET,NY,997615,182210,-73.951823,40.66679,309,35,32100,3012890025,BK63,Crown Heights South,17,17,NULL,309,71
2020,362 SCHERMERHORN STREET,NY,989844,189259,-73.979829,40.686147,302,33,3900,3001740001,BK38,DUMBO-Vinegar Hill-Downtown Brooklyn-Boerum Hill,15,15,NULL,302,84
2020,239 PATCHEN AVENUE,NY,1004815,188283,-73.925851,40.683446,303,41,38300,3016730001,BK35,Stuyvesant Heights,16,84,OFFICE OF CHARTER SCHOOLS,303,81
2020,561 GRAND AVENUE,NY,994891,186508,-73.961636,40.678591,308,35,30500,3011410005,BK61,Crown Heights North,17,13,NULL,308,77
2020,1119 BEDFORD AVENUE,NY,997093,189021,-73.953692,40.685486,303,36,24300,3018120001,BK75,Bedford,13,13,NULL,303,79
2020,300 WILLOUGHBY AVENUE,NY,995847,191399,-73.95818,40.692015,303,33,23500,3019260010,BK69,Clinton Hill,13,13,COMMUNITY SCHOOL DISTRICT 13,303,79
2020,905 WINTHROP STREET,NY,1004020,179408,-73.928744,40.659088,317,41,88000,3046060025,BK60,Prospect Lefferts Gardens-Wingate,18,18,COMMUNITY SCHOOL DISTRICT 18,317,67
2020,251 MAC DOUGAL STREET,NY,1009013,187279,-73.910719,40.680679,316,37,36900,3015280001,BK79,Ocean Hill,23,23,COMMUNITY SCHOOL DISTRICT 23,316,73
2020,901 CLASSON AVENUE,NY,995155,183307,-73.960689,40.669805,309,35,21300,3011870001,BK63,Crown Heights South,17,17,NULL,309,71
2020,105 TECH PLACE,NY,988103,192646,-73.986105,40.695444,302,33,1300,3001310001,BK38,DUMBO-Vinegar Hill-Downtown Brooklyn-Boerum Hill,13,13,NULL,302,84
2020,105 TECH PLACE,NY,988103,192646,-73.986105,40.695444,302,33,1300,3001310001,BK38,DUMBO-Vinegar Hill-Downtown Brooklyn-Boerum Hill,13,13,NULL,302,84
2020,1084 LENOX ROAD,NY,1006497,178909,-73.919818,40.657712,317,41,88600,3046690037,BK96,Rugby-Remsen Village,18,84,OFFICE OF CHARTER SCHOOLS,317,67
2020,4200 16 AVENUE,NY,989128,170661,-73.982424,40.6351,312,44,23000,3053620021,BK88,Borough Park,20,20,NULL,312,66
2020,50 BEDFORD AVENUE,NY,997187,202123,-73.953328,40.721448,301,33,51700,3026700001,BK73,North Side-South Side,14,14,NULL,301,94
2020,3000 AVENUE X,NY,1001848,155386,-73.936635,40.593157,315,48,62600,3074250002,BK17,Sheepshead Bay-Gerritsen Beach-Manhattan Beach,22,22,NULL,315,61
2020,40 EAST  29 STREET,NY,988468,210490,-73.9848,40.7444,105,2,7400,1008580049,MN17,Midtown-Midtown South,2,79,ALTERNATIVE HIGH SCHOOL DISTRICT,105,13
2020,325 BUSHWICK AVENUE,NY,1001221,196135,-73.93879,40.705005,301,34,48500,3030910001,BK78,Bushwick South,14,14,NULL,301,90
2020,1 WELLS STREET,NY,1018830,186599,-73.875328,40.67878,305,37,119600,3041550075,BK82,East New York,19,19,NULL,305,75
2020,300 WILLOUGHBY AVENUE,NY,995847,191399,-73.95818,40.692015,303,33,23500,3019260010,BK69,Clinton Hill,13,13,NULL,303,79
2020,1600 ROCKAWAY PARKWAY,NY,1012391,172660,-73.898601,40.640543,318,46,99000,3082220001,BK50,Canarsie,18,18,NULL,318,69
2020,999 JAMAICA AVENUE,NY,1020493,191783,-73.869305,40.693002,305,37,118000,3040940001,BK99,park-cemetery-etc-Brooklyn,19,19,NULL,305,75
2020,25 BRIGHTON  4TH ROAD,NY,994315,151777,-73.963764,40.583263,313,48,36600,3072610201,BK19,Brighton Beach,21,21,NULL,313,60
2020,150 ALBANY AVENUE,NY,1001092,185533,-73.939282,40.675905,308,36,31100,3012160046,BK61,Crown Heights North,17,17,COMMUNITY SCHOOL DISTRICT 17,308,77
2020,2021 BERGEN STREET,NY,1008470,185011,-73.912685,40.674456,316,41,36501,3014480001,BK79,Ocean Hill,23,84,OFFICE OF CHARTER SCHOOLS,316,73
2020,280 HART STREET,NY,1000534,191999,-73.941278,40.693654,303,36,28100,3017730014,BK35,Stuyvesant Heights,16,16,COMMUNITY SCHOOL DISTRICT 16,303,79
2020,272 MACDONOUGH STREET,NY,1002031,187582,-73.935891,40.681528,303,36,27300,3016740011,BK35,Stuyvesant Heights,16,16,COMMUNITY SCHOOL DISTRICT 16,303,81
2020,5800 TILDEN AVENUE,NY,1005836,175271,-73.922212,40.647728,317,45,93600,3047420001,BK96,Rugby-Remsen Village,18,18,NULL,317,67
2020,3000 AVENUE X,NY,1001848,155386,-73.936635,40.593157,315,48,62600,3074250002,BK17,Sheepshead Bay-Gerritsen Beach-Manhattan Beach,22,22,NULL,315,61
2020,76 RIVERDALE AVENUE,NY,1008247,179605,-73.913508,40.659618,316,42,89600,3035970011,BK81,Brownsville,23,23,COMMUNITY SCHOOL DISTRICT 23,316,73
2020,50 BEDFORD AVENUE,NY,997187,202123,-73.953328,40.721448,301,33,51700,3026700001,BK73,North Side-South Side,14,14,NULL,301,94
2020,1600 ROCKAWAY PARKWAY,NY,1012391,172660,-73.898601,40.640543,318,46,99000,3082220001,BK50,Canarsie,18,18,NULL,318,69
2020,76 RIVERDALE AVENUE,NY,1008247,179605,-73.913508,40.659618,316,42,89600,3035970011,BK81,Brownsville,23,23,COMMUNITY SCHOOL DISTRICT 23,316,73
2020,755 EAST  100 STREET,NY,1012387,174635,-73.898607,40.645965,318,46,974,3081880001,BK50,Canarsie,19,18,NULL,318,69
2020,755 EAST  100 STREET,NY,1012387,174635,-73.898607,40.645965,318,46,974,3081880001,BK50,Canarsie,19,18,NULL,318,69
2020,280 HART STREET,NY,1000534,191999,-73.941278,40.693654,303,36,28100,3017730014,BK35,Stuyvesant Heights,16,16,COMMUNITY SCHOOL DISTRICT 16,303,79
2020,6565 FLATLANDS AVENUE,NY,1007307,170435,-73.916927,40.634451,318,46,95000,3079980005,BK50,Canarsie,18,18,NULL,318,69
2020,999 JAMAICA AVENUE,NY,1020493,191783,-73.869305,40.693002,305,37,118000,3040940001,BK99,park-cemetery-etc-Brooklyn,19,19,NULL,305,75
2020,257 NORTH  6 STREET,NY,996793,199800,-73.9548,40.7151,301,33,51900,3023300011,BK73,North Side-South Side,14,14,COMMUNITY SCHOOL DISTRICT 14,301,94
2020,1600 ROCKAWAY PARKWAY,NY,1012391,172660,-73.898601,40.640543,318,46,99000,3082220001,BK50,Canarsie,18,18,NULL,318,69
2020,985 ROCKAWAY AVENUE,NY,1010148,178159,-73.906662,40.655644,316,42,92200,3036360007,BK81,Brownsville,23,23,NULL,316,73
2020,1137 HERKIMER STREET,NY,1007797,186347,-73.915106,40.678124,316,41,30100,3015500001,BK79,Ocean Hill,23,23,COMMUNITY SCHOOL DISTRICT 23,316,73
2020,1495 HERKIMER STREET,NY,1010838,186133,-73.904143,40.677528,316,37,36700,3015540016,BK79,Ocean Hill,23,23,COMMUNITY SCHOOL DISTRICT 23,316,73
2020,402 EASTERN PARKWAY,NY,996681,183219,-73.955188,40.669561,309,35,32300,3012670001,BK63,Crown Heights South,17,17,NULL,309,71
2020,985 ROCKAWAY AVENUE,NY,1010148,178159,-73.906662,40.655644,316,42,92200,3036360007,BK81,Brownsville,23,23,NULL,316,73
2020,800 GATES AVENUE,NY,1003090,189930,-73.932066,40.68797,303,36,29300,3016360001,BK35,Stuyvesant Heights,16,84,OFFICE OF CHARTER SCHOOLS,303,81
2020,800 GATES AVENUE,NY,1003090,189930,-73.932066,40.68797,303,36,29300,3016360001,BK35,Stuyvesant Heights,16,84,OFFICE OF CHARTER SCHOOLS,303,81
2020,732 HENRY STREET,NY,983175,185546,-74.003372,40.675936,306,38,5900,3005390024,BK33,Carroll Gardens-Columbia Street-Red Hook,15,84,OFFICE OF CHARTER SCHOOLS,306,76
2020,205 Rockaway Parkway,NY,1006323,180451,-73.92044,40.661945,317,41,89200,3046330050,BK81,Brownsville,18,84,OFFICE OF CHARTER SCHOOLS,317,67
2020,800 VAN SICLEN AVE,NY,1015961,179729,-73.885704,40.659934,305,42,110400,3043490050,BK82,East New York,19,19,COMMUNITY SCHOOL DISTRICT 19,305,75
2020,345 DEAN STREET,NY,989723,188459,-73.980266,40.683951,302,33,3900,3001920013,BK38,DUMBO-Vinegar Hill-Downtown Brooklyn-Boerum Hill,15,15,COMMUNITY SCHOOL DISTRICT 15,302,84
2020,999 JAMAICA AVENUE,NY,1020493,191783,-73.869305,40.693002,305,37,118000,3040940001,BK99,park-cemetery-etc-Brooklyn,19,19,NULL,305,75
2020,145 PENNSYLVANIA AVENUE,NY,1013105,184765,-73.895976,40.673766,305,37,114400,3037040001,BK85,East New York (Pennsylvania Ave),19,19,NULL,305,75
2020,350 LINWOOD STREET,NY,1016367,185988,-73.884211,40.677112,305,37,117000,3039690001,BK82,East New York,19,19,COMMUNITY SCHOOL DISTRICT 19,305,75
2020,350 LINWOOD STREET,NY,1016367,185988,-73.884211,40.677112,305,37,117000,3039690001,BK82,East New York,19,19,COMMUNITY SCHOOL DISTRICT 19,305,75
2020,574 DUMONT AVENUE,NY,1012657,181733,-73.897604,40.665446,305,42,113000,3038020015,BK85,East New York (Pennsylvania Ave),19,19,COMMUNITY SCHOOL DISTRICT 19,305,75
2020,251 MAC DOUGAL STREET,NY,1009013,187279,-73.910719,40.680679,316,37,36900,3015280001,BK79,Ocean Hill,23,23,COMMUNITY SCHOOL DISTRICT 23,316,73
2020,153 35TH STREET,NY,983045,178123,-74.004342,40.655583,307,38,8400,3006880026,BK32,Sunset Park West,15,15,NULL,307,72
2020,76 RIVERDALE AVENUE,NY,1008247,179605,-73.913508,40.659618,316,42,89600,3035970011,BK81,Brownsville,23,23,COMMUNITY SCHOOL DISTRICT 23,316,73
2020,1700 FULTON STREET,NY,1003221,186472,-73.931604,40.678478,303,36,27100,3017010001,BK61,Crown Heights North,16,16,NULL,303,81
2020,71-77 CLINTON AVENUE,NY,992913,192627,-73.968759,40.695389,302,35,19100,3018880034,BK69,Clinton Hill,13,13,NULL,302,88
2020,210 CHESTER STREET,NY,1008863,181999,-73.911279,40.666187,316,41,92400,3035420001,BK81,Brownsville,23,23,COMMUNITY SCHOOL DISTRICT 23,316,73
2020,1700 FULTON STREET,NY,1003221,186472,-73.931604,40.678478,303,36,27100,3017010001,BK61,Crown Heights North,16,16,COMMUNITY SCHOOL DISTRICT 16,303,81
2020,9517 KINGS HIGHWAY,NY,1006263,179711,-73.920658,40.659914,317,41,88600,3046500015,BK96,Rugby-Remsen Village,18,18,NULL,317,67
2020,105 TECH PLACE,NY,988103,192646,-73.986105,40.695444,302,33,1300,3001310001,BK38,DUMBO-Vinegar Hill-Downtown Brooklyn-Boerum Hill,13,13,NULL,302,84
2020,105 TECH PLACE,NY,988103,192646,-73.986105,40.695444,302,33,1300,3001310001,BK38,DUMBO-Vinegar Hill-Downtown Brooklyn-Boerum Hill,13,13,NULL,302,84
2020,27 HUNTINGTON STREET,NY,982821,186259,-74.005151,40.677914,306,38,5900,3005250001,BK33,Carroll Gardens-Columbia Street-Red Hook,15,15,COMMUNITY SCHOOL DISTRICT 15,306,76
2020,605 SHEPHERD AVENUE,NY,1017780,183165,-73.879131,40.669358,305,42,116400,3040690001,BK82,East New York,19,19,COMMUNITY SCHOOL DISTRICT 19,305,75
2020,605 SHEPHERD AVENUE,NY,1017780,183165,-73.879131,40.669358,305,42,116400,3040690001,BK82,East New York,19,19,COMMUNITY SCHOOL DISTRICT 19,305,75
2020,982 HEGEMAN AVENUE,NY,1018627,181876,-73.876084,40.665817,305,42,111600,3044770001,BK82,East New York,19,84,OFFICE OF CHARTER SCHOOLS,305,75
2020,1014 LAFAYETTE AVENUE,NY,1003152,191221,-73.9317,40.6921,303,36,29100,3016160001,BK35,Stuyvesant Heights,16,16,COMMUNITY SCHOOL DISTRICT 16,303,81
2020,1014 LAFAYETTE AVENUE,NY,1003152,191221,-73.9317,40.6921,303,36,29100,3016160001,BK35,Stuyvesant Heights,16,16,COMMUNITY SCHOOL DISTRICT 16,303,81
2020,50 AVENUE P,NY,987949,160421,-73.986678,40.606994,311,44,42800,3066180001,BK29,Bensonhurst East,21,20,COMMUNITY SCHOOL DISTRICT 20,311,62
2020,370 FOUNTAIN AVENUE,NY,1019054,183408,-73.874537,40.67002,305,42,111800,3042780001,BK82,East New York,19,19,NULL,305,75
2020,237 7 AVENUE,NY,990192,183105,-73.97858,40.669255,306,39,15500,3010820001,BK37,Park Slope-Gowanus,15,15,NULL,306,78
2020,250 HOOPER STREET,NY,996521,196327,-73.955741,40.70554,301,33,52900,3022070002,BK72,Williamsburg,14,14,NULL,301,90
2020,50 AVENUE P,NY,987949,160421,-73.986678,40.606994,311,44,42800,3066180001,BK29,Bensonhurst East,21,20,COMMUNITY SCHOOL DISTRICT 20,311,62
2020,125 STUYVESANT AVENUE,NY,1003037,191204,-73.932254,40.691467,303,36,29100,3016160001,BK35,Stuyvesant Heights,16,16,COMMUNITY SCHOOL DISTRICT 16,303,81
2020,424 LEONARD STREET,NY,998683,201530,-73.947932,40.719818,301,33,49900,3027120001,BK76,Greenpoint,14,84,OFFICE OF CHARTER SCHOOLS,301,94
2020,8310 21ST AVENUE,NY,985615,159687,-73.995084,40.60498,311,47,28800,3063290032,BK28,Bensonhurst West,21,21,NULL,311,62
2020,100 CLERMONT AVENUE,NY,992113,192314,-73.971644,40.69453,302,35,18700,3020450011,BK68,Fort Greene,13,13,COMMUNITY SCHOOL DISTRICT 13,302,88
2020,791 EMPIRE BOULEVARD,NY,1002074,181183,-73.935753,40.663964,309,35,35500,3014230014,BK63,Crown Heights South,17,84,OFFICE OF CHARTER SCHOOLS,309,71
2020,424 LEONARD STREET,NY,998683,201530,-73.947932,40.719818,301,33,49900,3027120001,BK76,Greenpoint,14,84,OFFICE OF CHARTER SCHOOLS,301,94
2020,424 LEONARD STREET,NY,998683,201530,-73.947932,40.719818,301,33,49900,3027120001,BK76,Greenpoint,14,84,OFFICE OF CHARTER SCHOOLS,301,94
2020,226 BRISTOL STREET,NY,1008635,181773,-73.912102,40.665568,316,41,92400,3035410001,BK81,Brownsville,23,23,NULL,316,73
2020,173 CONOVER STREET,NY,980298,186209,-74.014363,40.677968,306,38,5300,3005750003,BK33,Carroll Gardens-Columbia Street-Red Hook,15,15,NULL,306,76
2020,545 WILLOUGHBY AVENUE,NY,998876,192295,-73.947256,40.69447,303,36,25901,3017590013,BK75,Bedford,14,84,OFFICE OF CHARTER SCHOOLS,303,79
2020,241 EMERSON PLACE,NY,995028,191129,-73.961134,40.691275,302,35,19300,3019230001,BK69,Clinton Hill,13,84,OFFICE OF CHARTER SCHOOLS,302,88
2020,850 KENT AVENUE,NY,995342,192631,-73.959999,40.695397,303,33,123700,3018970013,BK75,Bedford,14,84,OFFICE OF CHARTER SCHOOLS,303,79
2020,655 PARKSIDE AVENUE,NY,997686,178433,-73.951575,40.656423,309,40,80200,3050500051,BK60,Prospect Lefferts Gardens-Wingate,17,84,OFFICE OF CHARTER SCHOOLS,309,71
2020,443 ST MARKS AVENUE,NY,995319,185965,-73.960093,40.6771,308,35,30500,3011480050,BK61,Crown Heights North,17,17,COMMUNITY SCHOOL DISTRICT 17,308,77
2020,3002 FORT HAMILTON PARKWAY,NY,990155,175322,-73.97872,40.647893,307,39,50000,3053160001,BK40,Windsor Terrace,15,84,OFFICE OF CHARTER SCHOOLS,307,72
2020,364 SACKMAN STREET,NY,1010565,182941,-73.90514,40.668768,316,41,90800,3037440009,BK81,Brownsville,23,84,OFFICE OF CHARTER SCHOOLS,316,73
2020,985 ROCKAWAY AVENUE,NY,1010148,178159,-73.906662,40.655644,316,42,92200,3036360007,BK81,Brownsville,23,84,OFFICE OF CHARTER SCHOOLS,316,73
2020,794 MONROE STREET,NY,1005210,189979,-73.924422,40.6881,303,41,38500,3016430036,BK35,Stuyvesant Heights,16,84,OFFICE OF CHARTER SCHOOLS,303,81
2020,64 AVENUE X,NY,989270,153527,-73.981925,40.58807,313,47,30800,3071850020,BK26,Gravesend,21,75,CITYWIDE SPECIAL EDUCATION,313,60
2020,790 EAST NEW YORK AVENUE,NY,1001919,180501,-73.936313,40.662092,309,41,87600,3048060001,BK60,Prospect Lefferts Gardens-Wingate,17,17,COMMUNITY SCHOOL DISTRICT 17,309,71
2020,1070 EAST 104 STREET,NY,1014000,173970,-73.892797,40.644134,318,46,98600,3082300001,BK50,Canarsie,18,84,OFFICE OF CHARTER SCHOOLS,318,69
2020,72 VERONICA PLACE,NY,997159,175492,-73.95348,40.648352,317,40,79400,3051100025,BK95,Erasmus,17,84,OFFICE OF CHARTER SCHOOLS,317,67
2020,2865 WEST 19TH STREET,NY,988302,149485,-73.985413,40.576976,313,47,32600,3070200039,BK21,Seagate-Coney Island,21,21,NULL,313,60
2020,27 HUNTINGTON STREET,NY,982821,186259,-74.005151,40.677914,306,38,5900,3005250001,BK33,Carroll Gardens-Columbia Street-Red Hook,15,84,OFFICE OF CHARTER SCHOOLS,306,76
2020,856 QUINCY STREET,NY,1005025,190514,-73.925087,40.689569,303,41,38700,3016330058,BK35,Stuyvesant Heights,16,84,OFFICE OF CHARTER SCHOOLS,303,81
2020,231 PALMETTO STREET,NY,1007760,192814,-73.915217,40.695875,304,37,43300,3033430001,BK77,Bushwick North,32,84,OFFICE OF CHARTER SCHOOLS,304,83
2020,700 PARK AVENUE,NY,998623,193354,-73.948166,40.697377,303,36,25700,3017390011,BK75,Bedford,14,84,OFFICE OF CHARTER SCHOOLS,303,79
2020,9301 AVENUE B,NY,1008035,176699,-73.914282,40.651642,317,42,93000,3047530001,BK96,Rugby-Remsen Village,18,84,OFFICE OF CHARTER SCHOOLS,317,67
2020,1501 PITKIN AVENUE,NY,1006964,182876,-73.918123,40.668608,316,41,90000,0,BK81,Brownsville,23,84,OFFICE OF CHARTER SCHOOLS,316,73
2020,3000 AVENUE X,NY,1001848,155386,-73.936635,40.593157,315,48,62600,3074250002,BK17,Sheepshead Bay-Gerritsen Beach-Manhattan Beach,22,84,OFFICE OF CHARTER SCHOOLS,315,61
2020,3000 AVENUE X,NY,1001848,155386,-73.936635,40.593157,315,48,62600,3074250002,BK17,Sheepshead Bay-Gerritsen Beach-Manhattan Beach,22,84,OFFICE OF CHARTER SCHOOLS,315,61
2020,2635 LINDEN BOULEVARD,NY,1021107,183169,-73.867138,40.669356,305,42,120800,3044640025,BK82,East New York,19,84,OFFICE OF CHARTER SCHOOLS,305,75
2020,330 CROWN STREET,NY,998331,181834,-73.949243,40.665757,309,35,31900,3012970026,BK63,Crown Heights South,17,84,OFFICE OF CHARTER SCHOOLS,309,71
2020,188 ROCHESTER AVENUE,NY,1003968,184371,-73.928917,40.67271,308,36,34700,3013670022,BK61,Crown Heights North,17,84,OFFICE OF CHARTER SCHOOLS,308,77
2020,501 WEST AVENUE,NY,992025,151505,-73.972009,40.582518,313,47,35400,3072500025,BK23,West Brighton,21,84,OFFICE OF CHARTER SCHOOLS,313,60
2020,501 WEST AVENUE,NY,992025,151505,-73.972009,40.582518,313,47,35400,3072500025,BK23,West Brighton,21,84,OFFICE OF CHARTER SCHOOLS,313,60
2020,600 KINGSTON AVENUE,NY,999832,179253,-73.943839,40.658671,309,40,81000,3048110001,BK60,Prospect Lefferts Gardens-Wingate,17,17,NULL,309,71
2020,2186 MILL AVENUE,NY,1008041,162350,-73.914312,40.612258,318,46,69800,3084701091,BK45,Georgetown-Marine Park-Bergen Beach-Mill Basin,22,84,OFFICE OF CHARTER SCHOOLS,318,63
2020,51 CHRISTOPHER AVENUE,NY,1010320,184197,-73.906018,40.672216,316,37,90800,3036930001,BK81,Brownsville,23,23,COMMUNITY SCHOOL DISTRICT 23,316,73
2020,1664 BENSON AVENUE,NY,982176,160328,-74.007469,40.606739,311,43,18000,3063990040,BK27,Bath Beach,20,20,COMMUNITY SCHOOL DISTRICT 20,311,62
2020,362 SCHERMERHORN STREET,NY,989844,189259,-73.979829,40.686147,302,33,3900,3001740001,BK38,DUMBO-Vinegar Hill-Downtown Brooklyn-Boerum Hill,15,15,COMMUNITY SCHOOL DISTRICT 15,302,84
2020,150 ALBANY AVENUE,NY,1001092,185533,-73.939282,40.675905,308,36,31100,3012160046,BK61,Crown Heights North,17,17,NULL,308,77
2020,101 PARK AVENUE,NY,990876,193278,-73.976104,40.697177,302,35,21100,3020280001,BK68,Fort Greene,13,84,OFFICE OF CHARTER SCHOOLS,302,88
2020,510 CLERMONT AVENUE,NY,992779,187959,-73.969248,40.682576,302,35,17900,3020080001,BK68,Fort Greene,13,75,CITYWIDE SPECIAL EDUCATION,302,88
2020,760 PROSPECT PLACE,NY,997687,184816,-73.951559,40.673943,308,36,31701,3012330026,BK61,Crown Heights North,17,84,OFFICE OF CHARTER SCHOOLS,308,77
2020,760 PROSPECT PLACE,NY,997687,184816,-73.951559,40.673943,308,36,31701,3012330026,BK61,Crown Heights North,17,84,OFFICE OF CHARTER SCHOOLS,308,77
2020,432 MONROE STREET,NY,1000652,189288,-73.940859,40.686213,303,36,27700,3018210001,BK35,Stuyvesant Heights,13,84,OFFICE OF CHARTER SCHOOLS,303,79
2020,500 19TH STREET,NY,989071,178349,-73.982624,40.656202,307,38,150200,3008890001,BK40,Windsor Terrace,15,84,OFFICE OF CHARTER SCHOOLS,307,72
2020,9719 FLATLANDS AVENUE,NY,1011882,173855,-73.900432,40.643834,318,46,97400,0,BK50,Canarsie,18,84,OFFICE OF CHARTER SCHOOLS,318,69
2020,528 RIDGEWOOD AVENUE,NY,1020461,189178,-73.869434,40.685852,305,37,118400,3041340020,BK83,Cypress Hills-City Line,19,19,COMMUNITY SCHOOL DISTRICT 19,305,75
2020,5404 TILDEN AVENUE,NY,1004898,175315,-73.925592,40.647851,317,45,94600,3047390001,BK96,Rugby-Remsen Village,18,18,COMMUNITY SCHOOL DISTRICT 18,317,67
2020,999 JAMAICA AVENUE,NY,1020493,191783,-73.869305,40.693002,305,37,118000,3040940001,BK99,park-cemetery-etc-Brooklyn,19,19,NULL,305,75
2020,1700 FULTON STREET,NY,1003221,186472,-73.931604,40.678478,303,36,27100,3017010001,BK61,Crown Heights North,16,16,NULL,303,81
2020,55 Willoughby Street,NY,987892,191549,-73.986867,40.692434,302,33,1100,3001470044,BK38,DUMBO-Vinegar Hill-Downtown Brooklyn-Boerum Hill,13,84,OFFICE OF CHARTER SCHOOLS,302,84
2020,330 ALABAMA AVENUE,NY,1012477,182658,-73.898249,40.667985,305,42,113400,3037680001,BK85,East New York (Pennsylvania Ave),19,84,OFFICE OF CHARTER SCHOOLS,305,75
2020,751 KNICKERBOCKER AVENUE,NY,1009507,192041,-73.90892,40.693748,304,37,43700,3033990001,BK77,Bushwick North,32,84,OFFICE OF CHARTER SCHOOLS,304,83
2020,60 EAST  94 STREET,NY,1004231,180975,-73.927979,40.663388,317,41,88200,3045950215,BK96,Rugby-Remsen Village,17,17,COMMUNITY SCHOOL DISTRICT 17,317,67
2020,1075 OCEAN VIEW AVENUE,NY,996512,150684,-73.955856,40.58026,313,48,61004,3087120056,BK19,Brighton Beach,21,75,CITYWIDE SPECIAL EDUCATION,313,60
2020,99 AVENUE P,NY,988419,160837,-73.984985,40.608135,311,44,43000,3065950033,BK29,Bensonhurst East,21,84,OFFICE OF CHARTER SCHOOLS,311,62
2020,350 LINWOOD STREET,NY,1016367,185988,-73.884211,40.677112,305,37,117000,3039690001,BK82,East New York,19,84,OFFICE OF CHARTER SCHOOLS,305,75
2020,51 CHRISTOPHER AVENUE,NY,1010320,184197,-73.906018,40.672216,316,37,90800,3036930001,BK81,Brownsville,23,84,OFFICE OF CHARTER SCHOOLS,316,73
2020,1137 HERKIMER STREET,NY,1007797,186347,-73.915106,40.678124,316,41,30100,3015500001,BK79,Ocean Hill,23,84,OFFICE OF CHARTER SCHOOLS,316,73
2020,832 MARCY AVENUE,NY,998707,188719,-73.947873,40.684654,303,36,24900,3018230038,BK75,Bedford,13,84,OFFICE OF CHARTER SCHOOLS,303,79
2020,1420 EAST  68 STREET,NY,1008426,165367,-73.912914,40.620537,318,46,69602,3083880002,BK45,Georgetown-Marine Park-Bergen Beach-Mill Basin,22,84,OFFICE OF CHARTER SCHOOLS,318,63
2020,82 LEWIS AVENUE,NY,1001521,192372,-73.937717,40.694676,303,36,28300,3015910045,BK35,Stuyvesant Heights,16,84,OFFICE OF CHARTER SCHOOLS,303,81
2020,200 WOODBINE STREET,NY,1007777,191964,-73.915159,40.693542,304,37,41500,3033600001,BK78,Bushwick South,32,84,OFFICE OF CHARTER SCHOOLS,304,83
2020,818 SCHENCK AVENUE,NY,1016581,179782,-73.883469,40.660077,305,42,110400,3043540026,BK82,East New York,19,84,OFFICE OF CHARTER SCHOOLS,305,75
2020,800 VAN SICLEN AVE,NY,1015961,179729,-73.885704,40.659934,305,42,110400,3043490050,BK82,East New York,19,84,OFFICE OF CHARTER SCHOOLS,305,75
2020,300 ADELPHI STREET,NY,992161,190215,-73.971474,40.688769,302,35,18100,3021030004,BK68,Fort Greene,13,84,OFFICE OF CHARTER SCHOOLS,302,88
2020,465 EAST  29 STREET,NY,998409,172070,-73.948982,40.638957,317,45,82800,3052160069,BK95,Erasmus,22,84,OFFICE OF CHARTER SCHOOLS,317,67
2020,259 PARKVILLE AVENUE,NY,992608,169587,-73.969887,40.632149,314,40,48200,3054240029,BK42,Flatbush,22,84,OFFICE OF CHARTER SCHOOLS,314,70
2020,1400 LINDEN BOULEVARD,NY,1009683,177746,-73.908341,40.65452,316,42,92200,0,BK81,Brownsville,18,84,OFFICE OF CHARTER SCHOOLS,316,73
2020,601 PARKSIDE AVENUE,NY,997066,178379,-73.95381,40.656276,309,40,80200,3050490055,BK60,Prospect Lefferts Gardens-Wingate,17,84,OFFICE OF CHARTER SCHOOLS,309,71
2020,475 EAST   57 STREET,NY,1005693,173872,-73.922733,40.643897,317,45,94600,0,BK96,Rugby-Remsen Village,18,84,OFFICE OF CHARTER SCHOOLS,317,67
2020,77 Sands Street,NY,987744,194462,-73.987399,40.70043,302,33,13,3000770001,BK38,DUMBO-Vinegar Hill-Downtown Brooklyn-Boerum Hill,13,84,OFFICE OF CHARTER SCHOOLS,302,84
2020,1962-84 LINDEN BLVD.,NY,1015110,178976,-73.888775,40.65787,305,42,110400,3043480001,BK82,East New York,19,84,OFFICE OF CHARTER SCHOOLS,305,75
2020,2525 HARING STREET,NY,1001300,154648,-73.93861,40.591132,315,48,59600,3074470001,BK17,Sheepshead Bay-Gerritsen Beach-Manhattan Beach,22,75,CITYWIDE SPECIAL EDUCATION,315,61
2020,4004 4 AVENUE,NY,982142,176864,-74.007596,40.652127,307,38,8200,3007130020,BK32,Sunset Park West,15,15,COMMUNITY SCHOOL DISTRICT 15,307,72
2020,713 CATON AVENUE,NY,991680,175344,-73.973363,40.647598,307,39,50400,3053210064,BK40,Windsor Terrace,15,15,COMMUNITY SCHOOL DISTRICT 15,307,72
2020,601 PARKSIDE AVENUE,NY,997066,178379,-73.95381,40.656276,309,40,80200,3050490055,BK60,Prospect Lefferts Gardens-Wingate,17,84,OFFICE OF CHARTER SCHOOLS,309,71
2020,1104 FULTON STREET,NY,996223,187423,-73.956832,40.681102,303,36,227,3020160030,BK69,Clinton Hill,13,84,OFFICE OF CHARTER SCHOOLS,303,79
2020,139 MENAHAN STREET,NY,1006530,192849,-73.919653,40.695975,304,37,41900,3033060015,BK78,Bushwick South,32,84,OFFICE OF CHARTER SCHOOLS,304,83
2020,787 LAFAYETTE AVENUE,NY,1000681,191204,-73.940749,40.691472,303,36,28100,3017870014,BK35,Stuyvesant Heights,16,84,OFFICE OF CHARTER SCHOOLS,303,79
2020,15 SNYDER AVENUE,NY,996043,175651,-73.957501,40.64879,314,40,79400,3051030101,BK95,Erasmus,17,84,OFFICE OF CHARTER SCHOOLS,314,70
2020,21 HINCKLEY PLACE,NY,992295,174218,-73.97101,40.644861,312,40,49200,3053420006,BK41,Kensington-Ocean Parkway,15,22,COMMUNITY SCHOOL DISTRICT 22,312,66
